{
"type": "FeatureCollection",
"name": "Special_Treatment_Facilities",
"crs": { "type": "name", "properties": { "name": "urn:ogc:def:crs:OGC:1.3:CRS84" } },
"features": [
{ "type": "Feature", "properties": { "objectid": 1, "name": "Aloha House, Inc.", "address": "4593 Ike Drive", "city": "Makawao", "zipcode": 96768, "island": "Maui", "phone_numb": 8085798414, "license_ex": "2022-05-31T00:00:00Z", "license_nu": "28-STF" }, "geometry": { "type": "Point", "coordinates": [ -156.34170856543949, 20.885035863449879 ] } },
{ "type": "Feature", "properties": { "objectid": 2, "name": "Benchmark Behavioral Health System, Inc", "address": "2501 Waimano Home Road", "city": "Pearl City", "zipcode": 96782, "island": "Oahu", "phone_numb": 8084541411, "license_ex": "2022-01-31T00:00:00Z", "license_nu": "69-STF" }, "geometry": { "type": "Point", "coordinates": [ -157.952037193624335, 21.416600729191963 ] } },
{ "type": "Feature", "properties": { "objectid": 3, "name": "Bobby Benson Center", "address": "56-660 Kamehameha Highway", "city": "Kahuku", "zipcode": 96731, "island": "Oahu", "phone_numb": 8082937555, "license_ex": "2022-10-31T00:00:00Z", "license_nu": "53-STF" }, "geometry": { "type": "Point", "coordinates": [ -157.95431679124718, 21.678708425338421 ] } },
{ "type": "Feature", "properties": { "objectid": 4, "name": "C.A.R.E. Cottage - Hilo", "address": "100-A Apoke Street", "city": "Hilo", "zipcode": 96720, "island": "Big Island", "phone_numb": 8089349411, "license_ex": "2022-01-31T00:00:00Z", "license_nu": "79-STF" }, "geometry": { "type": "Point", "coordinates": [ -155.118634359247181, 19.710316855511135 ] } },
{ "type": "Feature", "properties": { "objectid": 5, "name": "C.A.R.E. Cottage - Hilo #2", "address": "100 Apoke Street", "city": "Hilo", "zipcode": 96720, "island": "Big Island", "phone_numb": 8089349411, "license_ex": "2022-01-31T00:00:00Z", "license_nu": "81-STF" }, "geometry": { "type": "Point", "coordinates": [ -155.118556402136107, 19.710307958435607 ] } },
{ "type": "Feature", "properties": { "objectid": 6, "name": "E Ho'oulu Hou Program Elua Facility", "address": "2848 Park Street", "city": "Honolulu", "zipcode": 96822, "island": "Oahu", "phone_numb": 8085274673, "license_ex": "2022-04-30T00:00:00Z", "license_nu": "73-STF" }, "geometry": { "type": "Point", "coordinates": [ -157.839872027560176, 21.334168215988065 ] } },
{ "type": "Feature", "properties": { "objectid": 7, "name": "Emergency Shelter/Emergency Respite", "address": "94-483 Apowale Street", "city": "Waipahu", "zipcode": 96797, "island": "Oahu", "phone_numb": 8085333936, "license_ex": "2022-01-31T00:00:00Z", "license_nu": "90-STF" }, "geometry": { "type": "Point", "coordinates": [ -158.016483620130515, 21.386847003572399 ] } },
{ "type": "Feature", "properties": { "objectid": 8, "name": "Habilitat, Inc.", "address": "45-035 Kuhonu Place", "city": "Kaneohe", "zipcode": 96744, "island": "Oahu", "phone_numb": 8082357214, "license_ex": "2022-05-31T00:00:00Z", "license_nu": "23-STF" }, "geometry": { "type": "Point", "coordinates": [ -157.787241235288263, 21.41288911984347 ] } },
{ "type": "Feature", "properties": { "objectid": 9, "name": "Hawaii Island Recovery", "address": "73-4697 Hinalani Street", "city": "Kailua-Kona", "zipcode": 96740, "island": "Big Island", "phone_numb": 8083291281, "license_ex": "2022-01-31T00:00:00Z", "license_nu": "106-STF" }, "geometry": { "type": "Point", "coordinates": [ -155.979662229933609, 19.69157275015807 ] } },
{ "type": "Feature", "properties": { "objectid": 10, "name": "Hina Mauka", "address": "45-845 Pookela Street", "city": "Kaneohe", "zipcode": 96744, "island": "Oahu", "phone_numb": 8082362600, "license_ex": "2021-11-30T00:00:00Z", "license_nu": "52-STF" }, "geometry": { "type": "Point", "coordinates": [ -157.810105973555665, 21.404887508024451 ] } },
{ "type": "Feature", "properties": { "objectid": 11, "name": "Ho'omau Ke Ola I", "address": "84-1006 Farrington Highway", "city": "Waianae", "zipcode": 96792, "island": "Oahu", "phone_numb": 8086964266, "license_ex": "2022-05-31T00:00:00Z", "license_nu": "39-STF" }, "geometry": { "type": "Point", "coordinates": [ -158.211413965385248, 21.462543449564322 ] } },
{ "type": "Feature", "properties": { "objectid": 12, "name": "Ho'omau Ke Ola II", "address": "84-1006A Farrington Highway", "city": "Waianae", "zipcode": 96792, "island": "Oahu", "phone_numb": 8086964266, "license_ex": "2022-05-31T00:00:00Z", "license_nu": "61-STF" }, "geometry": { "type": "Point", "coordinates": [ -158.210192916577057, 21.461874498735611 ] } },
{ "type": "Feature", "properties": { "objectid": 13, "name": "Hope Treatment Services", "address": "360 California Avenue", "city": "Wahiawa", "zipcode": 96786, "island": "Oahu", "phone_numb": 8086384491, "license_ex": "2022-07-31T00:00:00Z", "license_nu": "103-STF" }, "geometry": { "type": "Point", "coordinates": [ -158.030639630204206, 21.495576191832885 ] } },
{ "type": "Feature", "properties": { "objectid": 14, "name": "HSH State Operated Specialized Residential Program", "address": "45-710 Keaahala Road", "city": "Kaneohe", "zipcode": 96744, "island": "Oahu", "phone_numb": 8082356047, "license_ex": "2022-01-31T00:00:00Z", "license_nu": "93-STF" }, "geometry": { "type": "Point", "coordinates": [ -157.810021385891389, 21.409491291256181 ] } },
{ "type": "Feature", "properties": { "objectid": 15, "name": "Ka Pa Ola", "address": "94-371 Kahuawai Street", "city": "Waipahu", "zipcode": 96797, "island": "Oahu", "phone_numb": 8086714484, "license_ex": "2022-06-30T00:00:00Z", "license_nu": "59-STF" }, "geometry": { "type": "Point", "coordinates": [ -157.996701139727747, 21.39277867085924 ] } },
{ "type": "Feature", "properties": { "objectid": 16, "name": "Ku Ho'omana Family Intervention Services", "address": "1786 Kinoole Street", "city": "Hilo", "zipcode": 96720, "island": "Big Island", "phone_numb": 8089595855, "license_ex": "2021-12-31T00:00:00Z", "license_nu": "105-STF" }, "geometry": { "type": "Point", "coordinates": [ -155.07008655708438, 19.695851672274582 ] } },
{ "type": "Feature", "properties": { "objectid": 17, "name": "Likini Licensed Crisis Residential Services", "address": "5165 Likini Street", "city": "Honolulu", "zipcode": 96818, "island": "Oahu", "phone_numb": 8087916193, "license_ex": "2022-01-31T00:00:00Z", "license_nu": "94-STF" }, "geometry": { "type": "Point", "coordinates": [ -157.90933703115482, 21.346638421024476 ] } },
{ "type": "Feature", "properties": { "objectid": 18, "name": "Nova Luna, Inc.", "address": "470 Lilihua Place", "city": "Wailuku", "zipcode": 96749, "island": "Maui", "phone_numb": 8083836698, "license_ex": "2022-03-31T00:00:00Z", "license_nu": "98-STF" }, "geometry": { "type": "Point", "coordinates": [ -156.483993351109262, 20.90780399204392 ] } },
{ "type": "Feature", "properties": { "objectid": 19, "name": "Pearl City Specialized Residential Services Population", "address": "1668 Hoohulu Street", "city": "Pearl City", "zipcode": 96782, "island": "Oahu", "phone_numb": 8084559682, "license_ex": "2022-01-31T00:00:00Z", "license_nu": "92-STF" }, "geometry": { "type": "Point", "coordinates": [ -157.957307237426022, 21.404472178758475 ] } },
{ "type": "Feature", "properties": { "objectid": 20, "name": "Pearl Haven", "address": "58-130 Kamehameha Highway", "city": "Haleiwa", "zipcode": 96712, "island": "Oahu", "phone_numb": 8084453131, "license_ex": "2022-03-31T00:00:00Z", "license_nu": "107-STF" }, "geometry": { "type": "Point", "coordinates": [ -158.022609727744765, 21.687859438229122 ] } },
{ "type": "Feature", "properties": { "objectid": 21, "name": "Po'ailani Dual Diagnosis Program", "address": "553-A Kawainui Street", "city": "Kailua", "zipcode": 96734, "island": "Oahu", "phone_numb": 8082631065, "license_ex": "2022-08-31T00:00:00Z", "license_nu": "37-STF" }, "geometry": { "type": "Point", "coordinates": [ -157.747437753954671, 21.396157539293284 ] } },
{ "type": "Feature", "properties": { "objectid": 22, "name": "Po'ailani Inc.", "address": "45-567 Pahia Road", "city": "Kaneohe", "zipcode": 96744, "island": "Oahu", "phone_numb": 8082478654, "license_ex": "2021-11-30T00:00:00Z", "license_nu": "96-STF" }, "geometry": { "type": "Point", "coordinates": [ -157.803841858950506, 21.41557418853629 ] } },
{ "type": "Feature", "properties": { "objectid": 23, "name": "Salvation Army Addiction Treatment Services", "address": "3624 Waokanaka Street", "city": "Honolulu", "zipcode": 96817, "island": "Oahu", "phone_numb": 8085956371, "license_ex": "2022-03-31T00:00:00Z", "license_nu": "13-STF" }, "geometry": { "type": "Point", "coordinates": [ -157.831554656404506, 21.344504497189792 ] } },
{ "type": "Feature", "properties": { "objectid": 24, "name": "Sand Island Treatment Center", "address": "1240 Sand Island Access Road", "city": "Honolulu", "zipcode": 96817, "island": "Oahu", "phone_numb": 8088412319, "license_ex": "2021-11-30T00:00:00Z", "license_nu": "1-STF" }, "geometry": { "type": "Point", "coordinates": [ -157.890633472165092, 21.323730613567943 ] } },
{ "type": "Feature", "properties": { "objectid": 25, "name": "The Exclusive Addiction Treatment Center", "address": "31-631 Old Mamalahoa Highway", "city": "Hakalau", "zipcode": 96710, "island": "Big Island", "phone_numb": 8087750200, "license_ex": "2022-03-31T00:00:00Z", "license_nu": "104-STF" }, "geometry": { "type": "Point", "coordinates": [ -155.123299330151752, 19.891869572372176 ] } },
{ "type": "Feature", "properties": { "objectid": 26, "name": "Women's Way", "address": "845 22nd Avenue", "city": "Honolulu", "zipcode": 96817, "island": "Oahu", "phone_numb": 8087322802, "license_ex": "2022-06-30T00:00:00Z", "license_nu": "32-STF" }, "geometry": { "type": "Point", "coordinates": [ -157.791851116979672, 21.272074415628254 ] } }
]
}
