{
"type": "FeatureCollection",
"name": "Preschools",
"crs": { "type": "name", "properties": { "name": "urn:ogc:def:crs:OGC:1.3:CRS84" } },
"features": [
{ "type": "Feature", "properties": { "objectid": 1, "name": "Kamaaina Kids - King Street Infant/Toddler Program", "address": "1054 King St", "city": "Honolulu", "zip": 96814, "island_dist": "Oahu", "type": "Licensed Infant/Toddler Center", "source": "PATCH" }, "geometry": { "type": "Point", "coordinates": [ -157.847108763972813, 21.300928918010595 ] } },
{ "type": "Feature", "properties": { "objectid": 2, "name": "Kamaaina Kids Pearl City Infant Toddler Program", "address": "784 Kamehameha Hwy", "city": "Pearl City", "zip": 96782, "island_dist": "Oahu", "type": "Licensed Infant/Toddler Center", "source": "PATCH" }, "geometry": { "type": "Point", "coordinates": [ -157.966735499865308, 21.393063000149208 ] } },
{ "type": "Feature", "properties": { "objectid": 3, "name": "Waikiki Community Center Preschool - IT", "address": "310 Paoakalani Avenue", "city": "Honolulu", "zip": 96815, "island_dist": "Oahu", "type": "Licensed Infant/Toddler Center", "source": "PATCH" }, "geometry": { "type": "Point", "coordinates": [ -157.820080696713887, 21.275223703938579 ] } },
{ "type": "Feature", "properties": { "objectid": 4, "name": "Kamaaina Kids Cfs Ewa Infant Toddler Program", "address": "91-1841 Fort Weaver Road", "city": "Ewa Beach", "zip": 96706, "island_dist": "Oahu", "type": "Licensed Infant/Toddler Center", "source": "PATCH" }, "geometry": { "type": "Point", "coordinates": [ -158.028752534556332, 21.354376507183119 ] } },
{ "type": "Feature", "properties": { "objectid": 5, "name": "Kamaaina Kids Mililani Tech Park Infant Toddler ", "address": "345 Kahelu Avenue", "city": "Mililani", "zip": 96789, "island_dist": "Oahu", "type": "Licensed Infant/Toddler Center", "source": "PATCH" }, "geometry": { "type": "Point", "coordinates": [ -158.016856500470197, 21.480524999590212 ] } },
{ "type": "Feature", "properties": { "objectid": 6, "name": "Honolulu Community College-keiki Hauoli Cdl Infant", "address": "874 Dillingham Blvd", "city": "Honolulu", "zip": 96817, "island_dist": "Oahu", "type": "Licensed Infant/Toddler Center", "source": "PATCH" }, "geometry": { "type": "Point", "coordinates": [ -157.869987833046594, 21.32024961316888 ] } },
{ "type": "Feature", "properties": { "objectid": 7, "name": "Kamaaina Kids Honolulu Toddler Program", "address": "930 Lunalilo Street", "city": "Honolulu", "zip": 96822, "island_dist": "Oahu", "type": "Licensed Infant/Toddler Center", "source": "PATCH" }, "geometry": { "type": "Point", "coordinates": [ -157.847273999736274, 21.305772000398907 ] } },
{ "type": "Feature", "properties": { "objectid": 8, "name": "Kamaaina Kids Piilani Infant Toddler Program", "address": "10 Manino Circle", "city": "Kihei", "zip": 96753, "island_dist": "Maui", "type": "Licensed Infant/Toddler Center", "source": "PATCH" }, "geometry": { "type": "Point", "coordinates": [ -156.447757298737088, 20.750858830645271 ] } },
{ "type": "Feature", "properties": { "objectid": 9, "name": "MEO Kahi Kamalii Infant Toddler Center", "address": "97 Mahalani Street", "city": "Wailuku", "zip": 96793, "island_dist": "Maui", "type": "Licensed Infant/Toddler Center", "source": "PATCH" }, "geometry": { "type": "Point", "coordinates": [ -156.487671013159144, 20.886748091288457 ] } },
{ "type": "Feature", "properties": { "objectid": 10, "name": "MFSS Early Head Start Center- Wailuku", "address": "1844 Wili Pa Loop", "city": "Wailuku", "zip": 96793, "island_dist": "Maui", "type": "Licensed Infant/Toddler Center", "source": "PATCH" }, "geometry": { "type": "Point", "coordinates": [ -156.500839802942721, 20.893670425339316 ] } },
{ "type": "Feature", "properties": { "objectid": 11, "name": "The Cole Academy Kaimuki IT Program", "address": "1041 10th Avenue", "city": "Honolulu", "zip": 96816, "island_dist": "Oahu", "type": "Licensed Infant/Toddler Center", "source": "PATCH" }, "geometry": { "type": "Point", "coordinates": [ -157.802242737009436, 21.281795655028301 ] } },
{ "type": "Feature", "properties": { "objectid": 12, "name": "Kamaaina Kids Alewa Heights Infant Toddler Program", "address": "1052 Ilima Drive", "city": "Honolulu", "zip": 96817, "island_dist": "Oahu", "type": "Licensed Infant/Toddler Center", "source": "PATCH" }, "geometry": { "type": "Point", "coordinates": [ -157.857205564902671, 21.333846162305957 ] } },
{ "type": "Feature", "properties": { "objectid": 13, "name": "Kamaaina Kids Aikahi Infant Toddler Program", "address": "38 Kaneohe Bay Drive", "city": "Kailua", "zip": 96734, "island_dist": "Oahu", "type": "Licensed Infant/Toddler Center", "source": "PATCH" }, "geometry": { "type": "Point", "coordinates": [ -157.749165000237696, 21.422105999704762 ] } },
{ "type": "Feature", "properties": { "objectid": 14, "name": "Stepping Stones Academy Infant And Toddler Program", "address": "860 Halekauwila St", "city": "Honolulu", "zip": 96813, "island_dist": "Oahu", "type": "Licensed Infant/Toddler Center", "source": "PATCH" }, "geometry": { "type": "Point", "coordinates": [ -157.856143499900099, 21.298274999614215 ] } },
{ "type": "Feature", "properties": { "objectid": 15, "name": "Rainbow School Honolulu Infant & Toddler", "address": "300 Ala Moana Blvd #1-108", "city": "Honolulu", "zip": 96813, "island_dist": "Oahu", "type": "Licensed Infant/Toddler Center", "source": "PATCH" }, "geometry": { "type": "Point", "coordinates": [ -157.86233099970957, 21.3036660000983 ] } },
{ "type": "Feature", "properties": { "objectid": 16, "name": "Kamaaina Kids Lahaina Infant Toddler Program", "address": "553 Wainee Street", "city": "Lahaina", "zip": 96761, "island_dist": "Maui", "type": "Licensed Infant/Toddler Center", "source": "PATCH" }, "geometry": { "type": "Point", "coordinates": [ -156.673577798702922, 20.870610298371179 ] } },
{ "type": "Feature", "properties": { "objectid": 17, "name": "FSSWH EHS Teen Parent Center At Kealakehe ", "address": "74-5000 Puohulihuli Street; Room J-102", "city": "Kailua-kona", "zip": 96740, "island_dist": "West Hawaii", "type": "Licensed Infant/Toddler Center", "source": "PATCH" }, "geometry": { "type": "Point", "coordinates": [ -155.998296441909332, 19.67074169070186 ] } },
{ "type": "Feature", "properties": { "objectid": 18, "name": "Kamaaina Kids Kalaeloa Infant Toddler Program", "address": "1965 Bougainville Avenue", "city": "Kapolei", "zip": 96707, "island_dist": "Oahu", "type": "Licensed Infant/Toddler Center", "source": "PATCH" }, "geometry": { "type": "Point", "coordinates": [ -158.05851456629685, 21.326194645261985 ] } },
{ "type": "Feature", "properties": { "objectid": 19, "name": "Happy Keiki Infant & Toddler Program at University Avenue", "address": "1035 University Avenue", "city": "Honolulu", "zip": 96826, "island_dist": "Oahu", "type": "Licensed Infant/Toddler Center", "source": "PATCH" }, "geometry": { "type": "Point", "coordinates": [ -157.821437883260529, 21.29282729761356 ] } },
{ "type": "Feature", "properties": { "objectid": 20, "name": "Hawaii Community College Children's Center ITC", "address": "1175 Manono Street", "city": "Hilo", "zip": 96720, "island_dist": "East Hawaii", "type": "Licensed Infant/Toddler Center", "source": "PATCH" }, "geometry": { "type": "Point", "coordinates": [ -155.070030350817774, 19.705595263814306 ] } },
{ "type": "Feature", "properties": { "objectid": 21, "name": "Poppins Keiki Hawaii Infant And Toddler Program", "address": "2255 Kalakaua Avenue #434", "city": "Honolulu", "zip": 96815, "island_dist": "Oahu", "type": "Licensed Infant/Toddler Center", "source": "PATCH" }, "geometry": { "type": "Point", "coordinates": [ -157.83038999967826, 21.277431000431758 ] } },
{ "type": "Feature", "properties": { "objectid": 22, "name": "Pahala Preschool Toddler Program", "address": "96-1225 Huapala Street", "city": "Pahala", "zip": 96777, "island_dist": "West Hawaii", "type": "Licensed Infant/Toddler Center", "source": "PATCH" }, "geometry": { "type": "Point", "coordinates": [ -155.478696251734533, 19.199748532623161 ] } },
{ "type": "Feature", "properties": { "objectid": 23, "name": "Kamaaina Kids St. Marks Childrens Ctr Infant Toddl", "address": "539 Kapahulu Avenue", "city": "Honolulu", "zip": 96815, "island_dist": "Oahu", "type": "Licensed Infant/Toddler Center", "source": "PATCH" }, "geometry": { "type": "Point", "coordinates": [ -157.814134979704789, 21.277528010271144 ] } },
{ "type": "Feature", "properties": { "objectid": 24, "name": "The Cole Academy Kailua I/T Program", "address": "780 Keolu Drive", "city": "Kailua", "zip": 96734, "island_dist": "Oahu", "type": "Licensed Infant/Toddler Center", "source": "PATCH" }, "geometry": { "type": "Point", "coordinates": [ -157.731117673246956, 21.383758186270942 ] } },
{ "type": "Feature", "properties": { "objectid": 25, "name": "Jack&Helen Greenwell Family Dev Center", "address": "81-6493 Mamalahoa Highway", "city": "Kealakekua", "zip": 96750, "island_dist": "West Hawaii", "type": "Licensed Infant/Toddler Center", "source": "PATCH" }, "geometry": { "type": "Point", "coordinates": [ -155.920259492977436, 19.506325776909932 ] } },
{ "type": "Feature", "properties": { "objectid": 26, "name": "The Cole Academy - Kapolei Infant And Toddler Program", "address": "1033 Ala Kahawai St.", "city": "Kapolei", "zip": 96707, "island_dist": "Oahu", "type": "Licensed Infant/Toddler Center", "source": "PATCH" }, "geometry": { "type": "Point", "coordinates": [ -158.078807999750694, 21.333249000120347 ] } },
{ "type": "Feature", "properties": { "objectid": 27, "name": "Strode Montessori Mauka", "address": "36 Merchant Street", "city": "Honolulu", "zip": 96813, "island_dist": "Oahu", "type": "Licensed Infant/Toddler Center", "source": "PATCH" }, "geometry": { "type": "Point", "coordinates": [ -157.863388348704063, 21.309858523249691 ] } },
{ "type": "Feature", "properties": { "objectid": 28, "name": "Kamaaina Kids Holy Trinity Infant Toddler Program", "address": "5919 Kalanianaole Hwy.", "city": "Honolulu", "zip": 96821, "island_dist": "Oahu", "type": "Licensed Infant/Toddler Center", "source": "PATCH" }, "geometry": { "type": "Point", "coordinates": [ -157.728910500052962, 21.282749999667882 ] } },
{ "type": "Feature", "properties": { "objectid": 29, "name": "MFSS Early Head Start Center- Lahaina", "address": "15 Ipu Aumakua Lane", "city": "Lahaina", "zip": 96761, "island_dist": "Maui", "type": "Licensed Infant/Toddler Center", "source": "PATCH" }, "geometry": { "type": "Point", "coordinates": [ -156.669883785302574, 20.86925605368199 ] } },
{ "type": "Feature", "properties": { "objectid": 30, "name": "Kamaaina Kids St. Timothy's Academy Infant Toddler", "address": "98-939 Moanalua Road.", "city": "Aiea", "zip": 96701, "island_dist": "Oahu", "type": "Licensed Infant/Toddler Center", "source": "PATCH" }, "geometry": { "type": "Point", "coordinates": [ -157.945193714995696, 21.387698365922038 ] } },
{ "type": "Feature", "properties": { "objectid": 31, "name": "Aloha Kai Academy I/T", "address": "954 Baldwin Avenue", "city": "Paia", "zip": 96779, "island_dist": "Maui", "type": "Licensed Infant/Toddler Center", "source": "PATCH" }, "geometry": { "type": "Point", "coordinates": [ -156.363359192421484, 20.899412531941515 ] } },
{ "type": "Feature", "properties": { "objectid": 32, "name": "The Cole Academy - Mililani Infant  And Toddler Program", "address": "94-359 Makohilani Street", "city": "Mililani", "zip": 96789, "island_dist": "Oahu", "type": "Licensed Infant/Toddler Center", "source": "PATCH" }, "geometry": { "type": "Point", "coordinates": [ -158.018899499708709, 21.433283999791406 ] } },
{ "type": "Feature", "properties": { "objectid": 33, "name": "Kamaaina Kids Maili Infant Toddler Program", "address": "87-227 St Johns Road", "city": "Waianae", "zip": 96792, "island_dist": "Oahu", "type": "Licensed Infant/Toddler Center", "source": "PATCH" }, "geometry": { "type": "Point", "coordinates": [ -158.172661739850867, 21.416797763088031 ] } },
{ "type": "Feature", "properties": { "objectid": 34, "name": "Kamaaina Kids Kaneohe Toddler Program", "address": "45-520 Keaahala Rd", "city": "Kaneohe", "zip": 96744, "island_dist": "Oahu", "type": "Licensed Infant/Toddler Center", "source": "PATCH" }, "geometry": { "type": "Point", "coordinates": [ -157.80217730882498, 21.413710977781026 ] } },
{ "type": "Feature", "properties": { "objectid": 35, "name": "Kamaaina Kids Enchanted Lake Toddler Program", "address": "1425 Keolu Drive", "city": "Kailua", "zip": 96734, "island_dist": "Oahu", "type": "Licensed Infant/Toddler Center", "source": "PATCH" }, "geometry": { "type": "Point", "coordinates": [ -157.734934838758733, 21.371214565269387 ] } },
{ "type": "Feature", "properties": { "objectid": 36, "name": "MFSS - Hale Hiipoi Infant Toddler Center", "address": "4111 Hana Hwy H-101", "city": "Hana", "zip": 96713, "island_dist": "Maui", "type": "Licensed Infant/Toddler Center", "source": "PATCH" }, "geometry": { "type": "Point", "coordinates": [ -156.000465115904518, 20.775584295362918 ] } },
{ "type": "Feature", "properties": { "objectid": 37, "name": "Happy Keiki Preschool IT Center Hawaii Kai", "address": "6650 Hawaii Kai Drive", "city": "Honolulu", "zip": 96825, "island_dist": "Oahu", "type": "Licensed Infant/Toddler Center", "source": "PATCH" }, "geometry": { "type": "Point", "coordinates": [ -157.709886469366893, 21.293811679695786 ] } },
{ "type": "Feature", "properties": { "objectid": 38, "name": "Kamaaina Kids Judd Street IT", "address": "45 Judd Street", "city": "Honolulu", "zip": 96817, "island_dist": "Oahu", "type": "Licensed Infant/Toddler Center", "source": "PATCH" }, "geometry": { "type": "Point", "coordinates": [ -157.850721290009943, 21.323160505953531 ] } },
{ "type": "Feature", "properties": { "objectid": 39, "name": "Children With Aloha Academy IT Program", "address": "550 Halekauwila Street", "city": "Honolulu", "zip": 96817, "island_dist": "Oahu", "type": "Licensed Infant/Toddler Center", "source": "PATCH" }, "geometry": { "type": "Point", "coordinates": [ -157.860480800341008, 21.30270352171917 ] } },
{ "type": "Feature", "properties": { "objectid": 40, "name": "The Cole Academy Queen's Court", "address": "800 Bethel Street, Ste. 100", "city": "Honolulu", "zip": 96813, "island_dist": "Oahu", "type": "Licensed Infant/Toddler Center", "source": "PATCH" }, "geometry": { "type": "Point", "coordinates": [ -157.863896999750921, 21.309813000311195 ] } },
{ "type": "Feature", "properties": { "objectid": 41, "name": "Stepping Stones Academy Infant And Toddler Center Waipahu", "address": "94-905 Waipahu Street #200", "city": "Waipahu", "zip": 96797, "island_dist": "Oahu", "type": "Licensed Infant/Toddler Center", "source": "PATCH" }, "geometry": { "type": "Point", "coordinates": [ -158.006025000441213, 21.386258999962738 ] } },
{ "type": "Feature", "properties": { "objectid": 42, "name": "The Cole Academy-Mauna Lani", "address": "68-148 Hoohana Street", "city": "Kamuela", "zip": 96743, "island_dist": "West Hawaii", "type": "Licensed Infant/Toddler Center", "source": "PATCH" }, "geometry": { "type": "Point", "coordinates": [ -155.850154043470837, 19.945289328960659 ] } },
{ "type": "Feature", "properties": { "objectid": 43, "name": "Ke Kula Kamalii `O Hanaiaulu", "address": "45-720 Keaahala Road #107", "city": "Kaneohe", "zip": 96744, "island_dist": "Oahu", "type": "Licensed Infant/Toddler Center", "source": "PATCH" }, "geometry": { "type": "Point", "coordinates": [ -157.813456500118207, 21.409308000100062 ] } },
{ "type": "Feature", "properties": { "objectid": 44, "name": "Kinder Kids International Hawaii Kai Infant Toddler", "address": "6660 Hawaii Kai Drive", "city": "Honolulu", "zip": 96825, "island_dist": "Oahu", "type": "Licensed Infant/Toddler Center", "source": "PATCH" }, "geometry": { "type": "Point", "coordinates": [ -157.708999084632154, 21.29384034104152 ] } },
{ "type": "Feature", "properties": { "objectid": 45, "name": "First Steps - Unity School", "address": "3608 Diamond Head Circle", "city": "Honolulu", "zip": 96815, "island_dist": "Oahu", "type": "Licensed Infant/Toddler Center", "source": "PATCH" }, "geometry": { "type": "Point", "coordinates": [ -157.812805059435789, 21.268690940800273 ] } },
{ "type": "Feature", "properties": { "objectid": 46, "name": "Stepping Stones Academy Infant And Toddler Center", "address": "98-761 Oihana Place", "city": "Aiea", "zip": 96701, "island_dist": "Oahu", "type": "Licensed Infant/Toddler Center", "source": "PATCH" }, "geometry": { "type": "Point", "coordinates": [ -157.952812147863739, 21.39182852532451 ] } },
{ "type": "Feature", "properties": { "objectid": 47, "name": "St Philomena Early Learning Center - Infant/Toddler Program", "address": "3300 Ala Laulani Street", "city": "Honolulu", "zip": 96818, "island_dist": "Oahu", "type": "Licensed Infant/Toddler Center", "source": "PATCH" }, "geometry": { "type": "Point", "coordinates": [ -157.914295959519762, 21.34657297381673 ] } },
{ "type": "Feature", "properties": { "objectid": 48, "name": "Keiki O Ka Aina Family Learning Center Infant Toddler", "address": "87-790 Kulauku Street", "city": "Waianae", "zip": 96792, "island_dist": "Oahu", "type": "Licensed Infant/Toddler Center", "source": "PATCH" }, "geometry": { "type": "Point", "coordinates": [ -158.171755012999114, 21.409419985107338 ] } },
{ "type": "Feature", "properties": { "objectid": 49, "name": "A Caring Place Infant And Toddler Program", "address": "260 North Kainalu Drive", "city": "Kailua", "zip": 96734, "island_dist": "Oahu", "type": "Licensed Infant/Toddler Center", "source": "PATCH" }, "geometry": { "type": "Point", "coordinates": [ -157.742734606676038, 21.403062460094567 ] } },
{ "type": "Feature", "properties": { "objectid": 50, "name": "The Early Education Center Toddler Program", "address": "1130 Alapai Street", "city": "Honolulu", "zip": 96813, "island_dist": "Oahu", "type": "Licensed Infant/Toddler Center", "source": "PATCH" }, "geometry": { "type": "Point", "coordinates": [ -157.853673817520672, 21.304160931919586 ] } },
{ "type": "Feature", "properties": { "objectid": 51, "name": "PACT Early Head Start Easter Seals ITC", "address": "41 Kaiulani Street", "city": "Hilo", "zip": 96720, "island_dist": "East Hawaii", "type": "Licensed Infant/Toddler Center", "source": "PATCH" }, "geometry": { "type": "Point", "coordinates": [ -155.092327781655399, 19.72419274598542 ] } },
{ "type": "Feature", "properties": { "objectid": 52, "name": "PACT Early Head Start Hawaiian Beaches ITC ", "address": "15-360 N. Puni Makai Loop", "city": "Pahoa", "zip": 96778, "island_dist": "East Hawaii", "type": "Licensed Infant/Toddler Center", "source": "PATCH" }, "geometry": { "type": "Point", "coordinates": [ -154.902471528559403, 19.548166370909044 ] } },
{ "type": "Feature", "properties": { "objectid": 53, "name": "MFSS Early Head Start - Waiale", "address": "67 Waiale Road", "city": "Wailuku", "zip": 96793, "island_dist": "Maui", "type": "Licensed Infant/Toddler Center", "source": "PATCH" }, "geometry": { "type": "Point", "coordinates": [ -156.497808792131991, 20.887654986998239 ] } },
{ "type": "Feature", "properties": { "objectid": 54, "name": "PACT Early Head Start At Leeward Health Center", "address": "860 Fourth Street #110", "city": "Pearl City", "zip": 96782, "island_dist": "Oahu", "type": "Licensed Infant/Toddler Center", "source": "PATCH" }, "geometry": { "type": "Point", "coordinates": [ -157.969165500339699, 21.392999999841216 ] } },
{ "type": "Feature", "properties": { "objectid": 55, "name": "PACT Early Head Start Ka Pua", "address": "87-790 Kulauku St", "city": "Waianae", "zip": 96792, "island_dist": "Oahu", "type": "Licensed Infant/Toddler Center", "source": "PATCH" }, "geometry": { "type": "Point", "coordinates": [ -158.171755012999114, 21.409419985107338 ] } },
{ "type": "Feature", "properties": { "objectid": 56, "name": "PACT Kahauiki Village Early Head Start ", "address": "2625 North Nimitz Hwy", "city": "Honolulu", "zip": 96819, "island_dist": "Oahu", "type": "Licensed Infant/Toddler Center", "source": "PATCH" }, "geometry": { "type": "Point", "coordinates": [ -157.891439637916221, 21.332885382147836 ] } },
{ "type": "Feature", "properties": { "objectid": 57, "name": "PACT Early Head Start Job Corps Infant/Toddler Program", "address": "41-467 Hihimanu Street", "city": "Waimanalo", "zip": 96795, "island_dist": "Oahu", "type": "Licensed Infant/Toddler Center", "source": "PATCH" }, "geometry": { "type": "Point", "coordinates": [ -157.718445912967979, 21.342304992081644 ] } },
{ "type": "Feature", "properties": { "objectid": 58, "name": "PACT Early Head Start KPT Portables", "address": "1485 Linapuni Street", "city": "Honolulu", "zip": 96819, "island_dist": "Oahu", "type": "Licensed Infant/Toddler Center", "source": "PATCH" }, "geometry": { "type": "Point", "coordinates": [ -157.876637186746706, 21.338136965175121 ] } },
{ "type": "Feature", "properties": { "objectid": 59, "name": "PACT - Early Head Start At Waialua High School", "address": "67-160 Farrington Hwy, Room V-101", "city": "Waialua", "zip": 96791, "island_dist": "Oahu", "type": "Licensed Infant/Toddler Center", "source": "PATCH" }, "geometry": { "type": "Point", "coordinates": [ -158.125635000038159, 21.565610999841205 ] } },
{ "type": "Feature", "properties": { "objectid": 60, "name": "The Early School Young Childrens Program", "address": "2510 Bingham Street", "city": "Honolulu", "zip": 96826, "island_dist": "Oahu", "type": "Licensed Infant/Toddler Center", "source": "PATCH" }, "geometry": { "type": "Point", "coordinates": [ -157.822579447168152, 21.294456232873483 ] } },
{ "type": "Feature", "properties": { "objectid": 61, "name": "The Growing Patch 24-Hour Children's Academy I/T CCC", "address": "99-080 Kauhale St, #D14-15", "city": "Aiea", "zip": 96701, "island_dist": "Oahu", "type": "Licensed Infant/Toddler Center", "source": "PATCH" }, "geometry": { "type": "Point", "coordinates": [ -157.931679685903049, 21.379093373290068 ] } },
{ "type": "Feature", "properties": { "objectid": 62, "name": "Hawaii Montessori Schools; Kona Campus I/T Program", "address": "74-978 Manawalea Street", "city": "Kailua-kona", "zip": 96740, "island_dist": "West Hawaii", "type": "Licensed Infant/Toddler Center", "source": "PATCH" }, "geometry": { "type": "Point", "coordinates": [ -155.987569084440651, 19.674510423852063 ] } },
{ "type": "Feature", "properties": { "objectid": 63, "name": "Cornerstone Early Education Center I/T", "address": "95-1080 Ukuwai St", "city": "Mililani", "zip": 96789, "island_dist": "Oahu", "type": "Licensed Infant/Toddler Center", "source": "PATCH" }, "geometry": { "type": "Point", "coordinates": [ -158.004275359815978, 21.469356363645506 ] } },
{ "type": "Feature", "properties": { "objectid": 64, "name": "PACT Waimanalo Early Head Start", "address": "41-038 Wailea Street", "city": "Waimanalo", "zip": 96795, "island_dist": "Oahu", "type": "Licensed Infant/Toddler Center", "source": "PATCH" }, "geometry": { "type": "Point", "coordinates": [ -157.697266306670912, 21.333211964344525 ] } },
{ "type": "Feature", "properties": { "objectid": 65, "name": "Wesley Childrens Programs Infant Toddler Program", "address": "1350 Hunakai Street", "city": "Honolulu", "zip": 96816, "island_dist": "Oahu", "type": "Licensed Infant/Toddler Center", "source": "PATCH" }, "geometry": { "type": "Point", "coordinates": [ -157.787244354920603, 21.28064083537037 ] } },
{ "type": "Feature", "properties": { "objectid": 66, "name": "Piaget School of Maui", "address": "1931 East Vineyard Street", "city": "Wailuku", "zip": 96793, "island_dist": "Maui", "type": "Licensed Infant/Toddler Center", "source": "PATCH" }, "geometry": { "type": "Point", "coordinates": [ -156.501059600607249, 20.89010786095815 ] } },
{ "type": "Feature", "properties": { "objectid": 67, "name": "Montessori School Of Maui Infant Toddler Program", "address": "2933 Baldwin Avenue", "city": "Makawao", "zip": 96768, "island_dist": "Maui", "type": "Licensed Infant/Toddler Center", "source": "PATCH" }, "geometry": { "type": "Point", "coordinates": [ -156.321393560927589, 20.868464992920718 ] } },
{ "type": "Feature", "properties": { "objectid": 68, "name": "Keiki O Ka Aina Infant Toddler Center-Kailua", "address": "647 Ulukahiki Street", "city": "Kailua", "zip": 96734, "island_dist": "Oahu", "type": "Licensed Infant/Toddler Center", "source": "PATCH" }, "geometry": { "type": "Point", "coordinates": [ -157.757359443336924, 21.381646448077106 ] } },
{ "type": "Feature", "properties": { "objectid": 69, "name": "Inspireme Preschool", "address": "94877 Lumiana Street", "city": "Waipahu", "zip": 96797, "island_dist": "Oahu", "type": "Licensed Group Child Care (Preschools)", "source": "PATCH" }, "geometry": { "type": "Point", "coordinates": [ -158.002903337812171, 21.40056209934988 ] } },
{ "type": "Feature", "properties": { "objectid": 70, "name": "Hoohua Early Learning Organization", "address": "87-169 Helelua St", "city": "Waianae", "zip": 96792, "island_dist": "Oahu", "type": "Licensed Group Child Care (Preschools)", "source": "PATCH" }, "geometry": { "type": "Point", "coordinates": [ -158.146729758704481, 21.386097313195052 ] } },
{ "type": "Feature", "properties": { "objectid": 71, "name": "HCAP Head Start Waianae Elementary", "address": "58-220 Mcarthur St Rm A-20", "city": "Waianae", "zip": 96792, "island_dist": "Oahu", "type": "Licensed Group Child Care (Preschools)", "source": "PATCH" }, "geometry": { "type": "Point", "coordinates": [ -158.184177882608708, 21.444713562270099 ] } },
{ "type": "Feature", "properties": { "objectid": 72, "name": "Akamai Kids Club, Inc. ", "address": "100 Kulanihakoi Street", "city": "Kihei", "zip": 96753, "island_dist": "Maui", "type": "Licensed Group Child Care (Preschools)", "source": "PATCH" }, "geometry": { "type": "Point", "coordinates": [ -156.454596497730506, 20.761779787409214 ] } },
{ "type": "Feature", "properties": { "objectid": 73, "name": "HCAP Head Start Kahuku Elementary", "address": "56-170 Pualalea St", "city": "Kahuku", "zip": 96731, "island_dist": "Oahu", "type": "Licensed Group Child Care (Preschools)", "source": "PATCH" }, "geometry": { "type": "Point", "coordinates": [ -157.951737698655023, 21.674508716600329 ] } },
{ "type": "Feature", "properties": { "objectid": 74, "name": "Ae Kamalii Preschool", "address": "2943 Kress Street", "city": "Lihue", "zip": 96766, "island_dist": "Kauai", "type": "Licensed Group Child Care (Preschools)", "source": "PATCH" }, "geometry": { "type": "Point", "coordinates": [ -159.366093666329505, 21.971669025057267 ] } },
{ "type": "Feature", "properties": { "objectid": 75, "name": "Kamehameha Schools Preschool - Anahola", "address": "4109 Kealia Road", "city": "Anahola", "zip": 96703, "island_dist": "Kauai", "type": "Licensed Group Child Care (Preschools)", "source": "PATCH" }, "geometry": { "type": "Point", "coordinates": [ -159.312063315803528, 22.140544336813093 ] } },
{ "type": "Feature", "properties": { "objectid": 76, "name": "Christian Liberty Preschool ", "address": "16-675 Milo Street", "city": "Keaau", "zip": 96749, "island_dist": "East Hawaii", "type": "Licensed Group Child Care (Preschools)", "source": "PATCH" }, "geometry": { "type": "Point", "coordinates": [ -155.029710046638684, 19.628301345382749 ] } },
{ "type": "Feature", "properties": { "objectid": 77, "name": "E Maka'ala Preschool Program ", "address": "440 W. Lanikaula St. ", "city": "Hilo", "zip": 96720, "island_dist": "East Hawaii", "type": "Licensed Group Child Care (Preschools)", "source": "PATCH" }, "geometry": { "type": "Point", "coordinates": [ -155.081525907350709, 19.703386243041994 ] } },
{ "type": "Feature", "properties": { "objectid": 78, "name": "Haili Christian Preschool ", "address": "190 Ululani Street", "city": "Hilo", "zip": 96720, "island_dist": "East Hawaii", "type": "Licensed Group Child Care (Preschools)", "source": "PATCH" }, "geometry": { "type": "Point", "coordinates": [ -155.088516384985979, 19.722166518057794 ] } },
{ "type": "Feature", "properties": { "objectid": 79, "name": "Hale Aloha Nazarene School ", "address": "595 Kupulau Road", "city": "Hilo", "zip": 96720, "island_dist": "East Hawaii", "type": "Licensed Group Child Care (Preschools)", "source": "PATCH" }, "geometry": { "type": "Point", "coordinates": [ -155.106051881679207, 19.676243322970574 ] } },
{ "type": "Feature", "properties": { "objectid": 80, "name": "Hawaii Community College Children's Center ", "address": "1175 Manono Street", "city": "Hilo", "zip": 96720, "island_dist": "East Hawaii", "type": "Licensed Group Child Care (Preschools)", "source": "PATCH" }, "geometry": { "type": "Point", "coordinates": [ -155.070030350817774, 19.705595263814306 ] } },
{ "type": "Feature", "properties": { "objectid": 81, "name": "Kailua Methodist Preschool", "address": "1110 Kailua Road", "city": "Kailua", "zip": 96734, "island_dist": "Oahu", "type": "Licensed Group Child Care (Preschools)", "source": "PATCH" }, "geometry": { "type": "Point", "coordinates": [ -157.751172202142328, 21.386378260811384 ] } },
{ "type": "Feature", "properties": { "objectid": 82, "name": "Kula Kamali'io Hi'ikeakaikamalama ", "address": "1500 Kalanianaole Avenue", "city": "Hilo", "zip": 96720, "island_dist": "East Hawaii", "type": "Licensed Group Child Care (Preschools)", "source": "PATCH" }, "geometry": { "type": "Point", "coordinates": [ -155.035886005276097, 19.734842879871326 ] } },
{ "type": "Feature", "properties": { "objectid": 83, "name": "Christ The King Child Development Center", "address": "211 Kaulawahine Street", "city": "Kahului", "zip": 96732, "island_dist": "Maui", "type": "Licensed Group Child Care (Preschools)", "source": "PATCH" }, "geometry": { "type": "Point", "coordinates": [ -156.466483791547375, 20.88496874791652 ] } },
{ "type": "Feature", "properties": { "objectid": 84, "name": "Waolani-Judd Nazarene School", "address": "408 North Judd Street", "city": "Honolulu", "zip": 96817, "island_dist": "Oahu", "type": "Licensed Group Child Care (Preschools)", "source": "PATCH" }, "geometry": { "type": "Point", "coordinates": [ -157.852437916373106, 21.325143833067468 ] } },
{ "type": "Feature", "properties": { "objectid": 85, "name": "Iao Preschool", "address": "2371 West Vineyard Street", "city": "Wailuku", "zip": 96793, "island_dist": "Maui", "type": "Licensed Group Child Care (Preschools)", "source": "PATCH" }, "geometry": { "type": "Point", "coordinates": [ -156.507489613799152, 20.887126430764216 ] } },
{ "type": "Feature", "properties": { "objectid": 86, "name": "Alphabetland Preschool - Waipahu", "address": "94-069 Waipahu Street", "city": "Waipahu", "zip": 96797, "island_dist": "Oahu", "type": "Licensed Group Child Care (Preschools)", "source": "PATCH" }, "geometry": { "type": "Point", "coordinates": [ -158.026239101423897, 21.380393067313243 ] } },
{ "type": "Feature", "properties": { "objectid": 87, "name": "Good Shepherd Preschool", "address": "638 North Kuakini Street", "city": "Honolulu", "zip": 96817, "island_dist": "Oahu", "type": "Licensed Group Child Care (Preschools)", "source": "PATCH" }, "geometry": { "type": "Point", "coordinates": [ -157.858496688425731, 21.325171796658957 ] } },
{ "type": "Feature", "properties": { "objectid": 88, "name": "Central Union Church Preschool & Kindergarten", "address": "1660 S. Beretania Street", "city": "Honolulu", "zip": 96826, "island_dist": "Oahu", "type": "Licensed Group Child Care (Preschools)", "source": "PATCH" }, "geometry": { "type": "Point", "coordinates": [ -157.833970990949894, 21.298220689931753 ] } },
{ "type": "Feature", "properties": { "objectid": 89, "name": "Pahala Preschool", "address": "96-1225 Huapala Street", "city": "Pahala", "zip": 96777, "island_dist": "West Hawaii", "type": "Licensed Group Child Care (Preschools)", "source": "PATCH" }, "geometry": { "type": "Point", "coordinates": [ -155.478696251734533, 19.199748532623161 ] } },
{ "type": "Feature", "properties": { "objectid": 90, "name": "Excel Church Preschool", "address": "95- 801 Kipapa Drive", "city": "Mililani", "zip": 96789, "island_dist": "Oahu", "type": "Licensed Group Child Care (Preschools)", "source": "PATCH" }, "geometry": { "type": "Point", "coordinates": [ -158.006163657947496, 21.464822421743118 ] } },
{ "type": "Feature", "properties": { "objectid": 91, "name": "Moiliili Hongwanji Preschool", "address": "902 University Avenue", "city": "Honolulu", "zip": 96826, "island_dist": "Oahu", "type": "Licensed Group Child Care (Preschools)", "source": "PATCH" }, "geometry": { "type": "Point", "coordinates": [ -157.823090999626118, 21.291254999949366 ] } },
{ "type": "Feature", "properties": { "objectid": 92, "name": "Honolulu Christian Preschool", "address": "2207 Oahu Avenue", "city": "Honolulu", "zip": 96822, "island_dist": "Oahu", "type": "Licensed Group Child Care (Preschools)", "source": "PATCH" }, "geometry": { "type": "Point", "coordinates": [ -157.820282999868027, 21.303107999888315 ] } },
{ "type": "Feature", "properties": { "objectid": 93, "name": "Pali View Baptist Preschool", "address": "45-510 Halekou Road", "city": "Kaneohe", "zip": 96744, "island_dist": "Oahu", "type": "Licensed Group Child Care (Preschools)", "source": "PATCH" }, "geometry": { "type": "Point", "coordinates": [ -157.795147394319685, 21.388894084867751 ] } },
{ "type": "Feature", "properties": { "objectid": 94, "name": "Rosary Preschool", "address": "94-1249 Lumikula Street", "city": "Waipahu", "zip": 96797, "island_dist": "Oahu", "type": "Licensed Group Child Care (Preschools)", "source": "PATCH" }, "geometry": { "type": "Point", "coordinates": [ -157.993485383940566, 21.410092111695121 ] } },
{ "type": "Feature", "properties": { "objectid": 95, "name": "Rainbow School - Wahiawa", "address": "108 California Avenue", "city": "Wahiawa", "zip": 96786, "island_dist": "Oahu", "type": "Licensed Group Child Care (Preschools)", "source": "PATCH" }, "geometry": { "type": "Point", "coordinates": [ -158.038033500111396, 21.493170000099298 ] } },
{ "type": "Feature", "properties": { "objectid": 96, "name": "Rainbow School - Mililani, A Licensed Demonstration Project", "address": "95-1361 Meheula Parkway", "city": "Mililani", "zip": 96789, "island_dist": "Oahu", "type": "Licensed Group Child Care (Preschools)", "source": "PATCH" }, "geometry": { "type": "Point", "coordinates": [ -158.007526484942559, 21.455918288076365 ] } },
{ "type": "Feature", "properties": { "objectid": 97, "name": "Kamaaina Kids Calvary Preschool", "address": "45-435 Aumoku Street", "city": "Kaneohe", "zip": 96744, "island_dist": "Oahu", "type": "Licensed Group Child Care (Preschools)", "source": "PATCH" }, "geometry": { "type": "Point", "coordinates": [ -157.797103500371946, 21.403008000230187 ] } },
{ "type": "Feature", "properties": { "objectid": 98, "name": "Honolulu Waldorf School Preschool", "address": "350 Ulua Street", "city": "Honolulu", "zip": 96821, "island_dist": "Oahu", "type": "Licensed Group Child Care (Preschools)", "source": "PATCH" }, "geometry": { "type": "Point", "coordinates": [ -157.734454383818672, 21.285794883012581 ] } },
{ "type": "Feature", "properties": { "objectid": 99, "name": "Bright Beginning Learning Center", "address": "54-109 Kawaipuna Street", "city": "Hauula", "zip": 96717, "island_dist": "Oahu", "type": "Licensed Group Child Care (Preschools)", "source": "PATCH" }, "geometry": { "type": "Point", "coordinates": [ -157.915361796988208, 21.618194718803569 ] } },
{ "type": "Feature", "properties": { "objectid": 100, "name": "Kamehameha Preschool Paukukalo", "address": "661 Kaumualii Street", "city": "Wailuku", "zip": 96793, "island_dist": "Maui", "type": "Licensed Group Child Care (Preschools)", "source": "PATCH" }, "geometry": { "type": "Point", "coordinates": [ -156.492662345938641, 20.909164594105679 ] } },
{ "type": "Feature", "properties": { "objectid": 101, "name": "Kamehameha Hana Preschool ", "address": "5060 Uakea Road", "city": "Hana", "zip": 96713, "island_dist": "Maui", "type": "Licensed Group Child Care (Preschools)", "source": "PATCH" }, "geometry": { "type": "Point", "coordinates": [ -155.984444873344302, 20.753972430682843 ] } },
{ "type": "Feature", "properties": { "objectid": 102, "name": "Makawao Hongwanji Preschool", "address": "223 Hiwalani Loop", "city": "Pukalani", "zip": 96768, "island_dist": "Maui", "type": "Licensed Group Child Care (Preschools)", "source": "PATCH" }, "geometry": { "type": "Point", "coordinates": [ -156.345416195077178, 20.841687618152687 ] } },
{ "type": "Feature", "properties": { "objectid": 103, "name": "Montessori School Of Maui", "address": "2933 Baldwin Avenue", "city": "Makawao", "zip": 96768, "island_dist": "Maui", "type": "Licensed Group Child Care (Preschools)", "source": "PATCH" }, "geometry": { "type": "Point", "coordinates": [ -156.321393560927589, 20.868464992920718 ] } },
{ "type": "Feature", "properties": { "objectid": 104, "name": "St. Joseph Early Learning Center", "address": "1294 Makawao Avenue", "city": "Makawao", "zip": 96768, "island_dist": "Maui", "type": "Licensed Group Child Care (Preschools)", "source": "PATCH" }, "geometry": { "type": "Point", "coordinates": [ -156.30835742339849, 20.856614355661993 ] } },
{ "type": "Feature", "properties": { "objectid": 105, "name": "Keiki Aloha Preschool", "address": "98-027 Hekaha Street, Unit 47", "city": "Aiea", "zip": 96701, "island_dist": "Oahu", "type": "Licensed Group Child Care (Preschools)", "source": "PATCH" }, "geometry": { "type": "Point", "coordinates": [ -157.951433905313735, 21.384763507941692 ] } },
{ "type": "Feature", "properties": { "objectid": 106, "name": "Pali Preschool", "address": "467 North Judd Street", "city": "Honolulu", "zip": 96817, "island_dist": "Oahu", "type": "Licensed Group Child Care (Preschools)", "source": "PATCH" }, "geometry": { "type": "Point", "coordinates": [ -157.853763000273688, 21.325572000265037 ] } },
{ "type": "Feature", "properties": { "objectid": 107, "name": "St Philomena Early Learning Center - Preschool Program", "address": "3300 Ala Laulani St", "city": "Honolulu", "zip": 96818, "island_dist": "Oahu", "type": "Licensed Group Child Care (Preschools)", "source": "PATCH" }, "geometry": { "type": "Point", "coordinates": [ -157.914295959519762, 21.34657297381673 ] } },
{ "type": "Feature", "properties": { "objectid": 108, "name": "Ke Kula Kamali'i Pu'uwai La'a", "address": "239 Dickenson Street", "city": "Lahaina", "zip": 96761, "island_dist": "Maui", "type": "Licensed Group Child Care (Preschools)", "source": "PATCH" }, "geometry": { "type": "Point", "coordinates": [ -156.675988435397983, 20.875300508652419 ] } },
{ "type": "Feature", "properties": { "objectid": 109, "name": "Wailuku Hongwanji Preschool", "address": "144 Kaniela Street", "city": "Wailuku", "zip": 96793, "island_dist": "Maui", "type": "Licensed Group Child Care (Preschools)", "source": "PATCH" }, "geometry": { "type": "Point", "coordinates": [ -156.499535295077777, 20.891808963704804 ] } },
{ "type": "Feature", "properties": { "objectid": 110, "name": "Children Of The Rainbow Preschool", "address": "142 Baker Street", "city": "Lahaina", "zip": 96761, "island_dist": "Maui", "type": "Licensed Group Child Care (Preschools)", "source": "PATCH" }, "geometry": { "type": "Point", "coordinates": [ -156.682038267450338, 20.879507424726306 ] } },
{ "type": "Feature", "properties": { "objectid": 111, "name": "E Malama I Na Keiki O Lanai Preschool", "address": "751 Fraser Avenue", "city": "Lanai City", "zip": 96763, "island_dist": "Lanai", "type": "Licensed Group Child Care (Preschools)", "source": "PATCH" }, "geometry": { "type": "Point", "coordinates": [ -156.921074590326299, 20.824631235858416 ] } },
{ "type": "Feature", "properties": { "objectid": 112, "name": "The Cole Academy Kailua", "address": "780 Keolu Drive", "city": "Kailua", "zip": 96734, "island_dist": "Oahu", "type": "Licensed Group Child Care (Preschools)", "source": "PATCH" }, "geometry": { "type": "Point", "coordinates": [ -157.731117673246956, 21.383758186270942 ] } },
{ "type": "Feature", "properties": { "objectid": 113, "name": "First Baptist Preschool Of Haleiwa", "address": "66-415 Haleiwa Road", "city": "Haleiwa", "zip": 96712, "island_dist": "Oahu", "type": "Licensed Group Child Care (Preschools)", "source": "PATCH" }, "geometry": { "type": "Point", "coordinates": [ -158.11251299961242, 21.587076000131042 ] } },
{ "type": "Feature", "properties": { "objectid": 114, "name": "Kamaaina Kids Pearl City", "address": "784 Kamehameha Hwy", "city": "Pearl City", "zip": 96782, "island_dist": "Oahu", "type": "Licensed Group Child Care (Preschools)", "source": "PATCH" }, "geometry": { "type": "Point", "coordinates": [ -157.966735499865308, 21.393063000149208 ] } },
{ "type": "Feature", "properties": { "objectid": 115, "name": "Hanahauoli Pre Kindergarten", "address": "1922 Makiki Street", "city": "Honolulu", "zip": 96822, "island_dist": "Oahu", "type": "Licensed Group Child Care (Preschools)", "source": "PATCH" }, "geometry": { "type": "Point", "coordinates": [ -157.831631474183553, 21.307076474106793 ] } },
{ "type": "Feature", "properties": { "objectid": 116, "name": "Hanalani Schools Early Childhood", "address": "94-294 Anania Drive", "city": "Mililani", "zip": 96789, "island_dist": "Oahu", "type": "Licensed Group Child Care (Preschools)", "source": "PATCH" }, "geometry": { "type": "Point", "coordinates": [ -158.009682807066838, 21.440789999350333 ] } },
{ "type": "Feature", "properties": { "objectid": 117, "name": "Saint Michael School", "address": "67-340 Haona Street", "city": "Waialua", "zip": 96791, "island_dist": "Oahu", "type": "Licensed Group Child Care (Preschools)", "source": "PATCH" }, "geometry": { "type": "Point", "coordinates": [ -158.121890726665555, 21.568609421703584 ] } },
{ "type": "Feature", "properties": { "objectid": 118, "name": "Kalihi Union Church Preschool", "address": "2214 North King Street", "city": "Honolulu", "zip": 96819, "island_dist": "Oahu", "type": "Licensed Group Child Care (Preschools)", "source": "PATCH" }, "geometry": { "type": "Point", "coordinates": [ -157.880169000025234, 21.335651999637406 ] } },
{ "type": "Feature", "properties": { "objectid": 119, "name": "Manoa Valley Church Preschool", "address": "2728 Huapala Street", "city": "Honolulu", "zip": 96822, "island_dist": "Oahu", "type": "Licensed Group Child Care (Preschools)", "source": "PATCH" }, "geometry": { "type": "Point", "coordinates": [ -157.810320000365067, 21.310704000423023 ] } },
{ "type": "Feature", "properties": { "objectid": 120, "name": "Kamaaina Kids Mililani Tech Park Preschool", "address": "345 Kahelu Avenue", "city": "Mililani", "zip": 96789, "island_dist": "Oahu", "type": "Licensed Group Child Care (Preschools)", "source": "PATCH" }, "geometry": { "type": "Point", "coordinates": [ -158.016856500470197, 21.480524999590212 ] } },
{ "type": "Feature", "properties": { "objectid": 121, "name": "Waikiki Community Center Preschool - GCC", "address": "310 Paoakalani Avenue", "city": "Honolulu", "zip": 96815, "island_dist": "Oahu", "type": "Licensed Group Child Care (Preschools)", "source": "PATCH" }, "geometry": { "type": "Point", "coordinates": [ -157.820080696713887, 21.275223703938579 ] } },
{ "type": "Feature", "properties": { "objectid": 122, "name": "Wahiawa Baptist Preschool", "address": "1233 California Avenue", "city": "Wahiawa", "zip": 96786, "island_dist": "Oahu", "type": "Licensed Group Child Care (Preschools)", "source": "PATCH" }, "geometry": { "type": "Point", "coordinates": [ -158.019855308470255, 21.500643616286233 ] } },
{ "type": "Feature", "properties": { "objectid": 123, "name": "Le Jardin Academy Junior School", "address": "1004 Kailua Road", "city": "Kailua", "zip": 96734, "island_dist": "Oahu", "type": "Licensed Group Child Care (Preschools)", "source": "PATCH" }, "geometry": { "type": "Point", "coordinates": [ -157.749391794224749, 21.388337547097223 ] } },
{ "type": "Feature", "properties": { "objectid": 124, "name": "Kilohana United Methodist Church Preschool Inc.", "address": "5829 Mahimahi Street", "city": "Honolulu", "zip": 96821, "island_dist": "Oahu", "type": "Licensed Group Child Care (Preschools)", "source": "PATCH" }, "geometry": { "type": "Point", "coordinates": [ -157.733660432267641, 21.282983698450789 ] } },
{ "type": "Feature", "properties": { "objectid": 125, "name": "Honolulu Community College Keiki Hauoli Childrens ", "address": "874 Dillingham Boulevard", "city": "Honolulu", "zip": 96817, "island_dist": "Oahu", "type": "Licensed Group Child Care (Preschools)", "source": "PATCH" }, "geometry": { "type": "Point", "coordinates": [ -157.869987833046594, 21.32024961316888 ] } },
{ "type": "Feature", "properties": { "objectid": 126, "name": "Kaimuki Christian School", "address": "1117 Koko Head Avenue", "city": "Honolulu", "zip": 96816, "island_dist": "Oahu", "type": "Licensed Group Child Care (Preschools)", "source": "PATCH" }, "geometry": { "type": "Point", "coordinates": [ -157.798156500212599, 21.281049000352514 ] } },
{ "type": "Feature", "properties": { "objectid": 127, "name": "HCAP Head Start Pohakea Elementary", "address": "91-750 Fort Weaver Road", "city": "Ewa Beach", "zip": 96706, "island_dist": "Oahu", "type": "Licensed Group Child Care (Preschools)", "source": "PATCH" }, "geometry": { "type": "Point", "coordinates": [ -158.009710500360171, 21.315762000394649 ] } },
{ "type": "Feature", "properties": { "objectid": 128, "name": "Malama Na Keiki O Waianae Preschool", "address": "86-072 Farrington Hwy", "city": "Waianae", "zip": 96792, "island_dist": "Oahu", "type": "Licensed Group Child Care (Preschools)", "source": "PATCH" }, "geometry": { "type": "Point", "coordinates": [ -158.185124999833306, 21.43803600035616 ] } },
{ "type": "Feature", "properties": { "objectid": 129, "name": "Makiki Christian Church Preschool", "address": "829 Pensacola Street", "city": "Honolulu", "zip": 96814, "island_dist": "Oahu", "type": "Licensed Group Child Care (Preschools)", "source": "PATCH" }, "geometry": { "type": "Point", "coordinates": [ -157.846510506947197, 21.298761431390648 ] } },
{ "type": "Feature", "properties": { "objectid": 130, "name": "Queen Emma Preschool", "address": "3019 Pali Hwy", "city": "Honolulu", "zip": 96817, "island_dist": "Oahu", "type": "Licensed Group Child Care (Preschools)", "source": "PATCH" }, "geometry": { "type": "Point", "coordinates": [ -157.837620808896787, 21.337397132007133 ] } },
{ "type": "Feature", "properties": { "objectid": 131, "name": "Rainbow School Kahuku", "address": "56-463 Kamehameha Hwy", "city": "Kahuku", "zip": 96731, "island_dist": "Oahu", "type": "Licensed Group Child Care (Preschools)", "source": "PATCH" }, "geometry": { "type": "Point", "coordinates": [ -157.945359941796653, 21.675174763750356 ] } },
{ "type": "Feature", "properties": { "objectid": 132, "name": "Rainbow School Honolulu", "address": "300 Ala Moana Blvd #1-108", "city": "Honolulu", "zip": 96813, "island_dist": "Oahu", "type": "Licensed Group Child Care (Preschools)", "source": "PATCH" }, "geometry": { "type": "Point", "coordinates": [ -157.86233099970957, 21.3036660000983 ] } },
{ "type": "Feature", "properties": { "objectid": 133, "name": "Kamehameha Schools - Honaunau Preschool ", "address": "84-5574 Honaunau Beach Road", "city": "Captain Cook", "zip": 96704, "island_dist": "West Hawaii", "type": "Licensed Group Child Care (Preschools)", "source": "PATCH" }, "geometry": { "type": "Point", "coordinates": [ -155.911155123898595, 19.423904564875684 ] } },
{ "type": "Feature", "properties": { "objectid": 134, "name": "St. Joseph Montessori-Based Preschool ", "address": "999 Ululani Street", "city": "Hilo", "zip": 96720, "island_dist": "East Hawaii", "type": "Licensed Group Child Care (Preschools)", "source": "PATCH" }, "geometry": { "type": "Point", "coordinates": [ -155.083755873791546, 19.714141811136656 ] } },
{ "type": "Feature", "properties": { "objectid": 135, "name": "Emmanuel Lutheran Preschool", "address": "520 West One Street", "city": "Kahului", "zip": 96732, "island_dist": "Maui", "type": "Licensed Group Child Care (Preschools)", "source": "PATCH" }, "geometry": { "type": "Point", "coordinates": [ -156.482301225274284, 20.888200266208962 ] } },
{ "type": "Feature", "properties": { "objectid": 136, "name": "HCAP Head Start Waipahu Elementary", "address": "94-465 Waipahu Street", "city": "Waipahu", "zip": 96797, "island_dist": "Oahu", "type": "Licensed Group Child Care (Preschools)", "source": "PATCH" }, "geometry": { "type": "Point", "coordinates": [ -158.015957307816564, 21.385518110670048 ] } },
{ "type": "Feature", "properties": { "objectid": 137, "name": "Creative Day Preschool", "address": "74-4981 Palani Road", "city": "Kailua-kona", "zip": 96740, "island_dist": "West Hawaii", "type": "Licensed Group Child Care (Preschools)", "source": "PATCH" }, "geometry": { "type": "Point", "coordinates": [ -155.978322796934776, 19.677071745725822 ] } },
{ "type": "Feature", "properties": { "objectid": 138, "name": "Kamehameha Schools- Kona Preschool", "address": "74-5100 Palani Road", "city": "Kailua-kona", "zip": 96740, "island_dist": "West Hawaii", "type": "Licensed Group Child Care (Preschools)", "source": "PATCH" }, "geometry": { "type": "Point", "coordinates": [ -155.980638496721667, 19.668991022245677 ] } },
{ "type": "Feature", "properties": { "objectid": 139, "name": "Kamehameha Schools, Kailua-Kona Preschool", "address": "75-5713 Alii Drive", "city": "Kailua-kona", "zip": 96740, "island_dist": "West Hawaii", "type": "Licensed Group Child Care (Preschools)", "source": "PATCH" }, "geometry": { "type": "Point", "coordinates": [ -155.993988483581376, 19.63943010898706 ] } },
{ "type": "Feature", "properties": { "objectid": 140, "name": "Kona Hongwanji Preschool", "address": "81-6630 Mamalahoa Highway", "city": "Kealakekua", "zip": 96750, "island_dist": "West Hawaii", "type": "Licensed Group Child Care (Preschools)", "source": "PATCH" }, "geometry": { "type": "Point", "coordinates": [ -155.920412947714084, 19.516025431132949 ] } },
{ "type": "Feature", "properties": { "objectid": 141, "name": "Small World Preschool", "address": "65-1253 Kawaihae Road", "city": "Kamuela", "zip": 96743, "island_dist": "West Hawaii", "type": "Licensed Group Child Care (Preschools)", "source": "PATCH" }, "geometry": { "type": "Point", "coordinates": [ -155.672381486270581, 20.022000733642468 ] } },
{ "type": "Feature", "properties": { "objectid": 142, "name": "Waikoloa Baptist Keikiland", "address": "68-3670 Paniolo Avenue", "city": "Waikoloa", "zip": 96738, "island_dist": "West Hawaii", "type": "Licensed Group Child Care (Preschools)", "source": "PATCH" }, "geometry": { "type": "Point", "coordinates": [ -155.790383965864436, 19.943467932246332 ] } },
{ "type": "Feature", "properties": { "objectid": 143, "name": "Montessori Education Center of Hawaii-Waimea Camp", "address": "65-1197 Opelo Road", "city": "Kamuela", "zip": 96743, "island_dist": "West Hawaii", "type": "Licensed Group Child Care (Preschools)", "source": "PATCH" }, "geometry": { "type": "Point", "coordinates": [ -155.676771112245547, 20.020902978039068 ] } },
{ "type": "Feature", "properties": { "objectid": 144, "name": "Kahului Hongwanji Preschool", "address": "291 South Puunene Avenue", "city": "Kahului", "zip": 96732, "island_dist": "Maui", "type": "Licensed Group Child Care (Preschools)", "source": "PATCH" }, "geometry": { "type": "Point", "coordinates": [ -156.463875708339913, 20.883839351295855 ] } },
{ "type": "Feature", "properties": { "objectid": 145, "name": "MEO Head Start - UH Maui College", "address": "310 Kaahumanu Street", "city": "Kahului", "zip": 96732, "island_dist": "Maui", "type": "Licensed Group Child Care (Preschools)", "source": "PATCH" }, "geometry": { "type": "Point", "coordinates": [ -156.476708999987608, 20.888906483591036 ] } },
{ "type": "Feature", "properties": { "objectid": 146, "name": "Noah's Ark Early Childhood Center", "address": "777 Mokulele Highway", "city": "Kahului", "zip": 96732, "island_dist": "Maui", "type": "Licensed Group Child Care (Preschools)", "source": "PATCH" }, "geometry": { "type": "Point", "coordinates": [ -156.459874884998186, 20.875364597880871 ] } },
{ "type": "Feature", "properties": { "objectid": 147, "name": "HCAP Head Start Palolo I-III", "address": "2106 10th Ave", "city": "Honolulu", "zip": 96816, "island_dist": "Oahu", "type": "Licensed Group Child Care (Preschools)", "source": "PATCH" }, "geometry": { "type": "Point", "coordinates": [ -157.791496493124782, 21.299753711423499 ] } },
{ "type": "Feature", "properties": { "objectid": 148, "name": "Haleakala Waldorf School ", "address": "4160 Lower Kula Road", "city": "Kula", "zip": 96790, "island_dist": "Maui", "type": "Licensed Group Child Care (Preschools)", "source": "PATCH" }, "geometry": { "type": "Point", "coordinates": [ -156.327140011042559, 20.766966504426403 ] } },
{ "type": "Feature", "properties": { "objectid": 149, "name": "Kamaaina Kids Piilani Children's Center", "address": "10 Manino Circle Building 26", "city": "Kihei", "zip": 96753, "island_dist": "Maui", "type": "Licensed Group Child Care (Preschools)", "source": "PATCH" }, "geometry": { "type": "Point", "coordinates": [ -156.447757298737088, 20.750858830645271 ] } },
{ "type": "Feature", "properties": { "objectid": 150, "name": "The Preschool At Kapalua", "address": "5960 Lower Honoapiilani Road", "city": "Lahaina", "zip": 96761, "island_dist": "Maui", "type": "Licensed Group Child Care (Preschools)", "source": "PATCH" }, "geometry": { "type": "Point", "coordinates": [ -156.665615373644641, 20.998118547367003 ] } },
{ "type": "Feature", "properties": { "objectid": 151, "name": "Kahului Union Church Preschool", "address": "101 West Kamehameha Avenue", "city": "Kahului", "zip": 96732, "island_dist": "Maui", "type": "Licensed Group Child Care (Preschools)", "source": "PATCH" }, "geometry": { "type": "Point", "coordinates": [ -156.468461078229666, 20.88781766066182 ] } },
{ "type": "Feature", "properties": { "objectid": 152, "name": "Wailuku Union Preschool", "address": "327 South High Street", "city": "Wailuku", "zip": 96793, "island_dist": "Maui", "type": "Licensed Group Child Care (Preschools)", "source": "PATCH" }, "geometry": { "type": "Point", "coordinates": [ -156.504829732783406, 20.884093961735573 ] } },
{ "type": "Feature", "properties": { "objectid": 153, "name": "Children's Garden", "address": "2140 Kanakanui Road", "city": "Kihei", "zip": 96753, "island_dist": "Maui", "type": "Licensed Group Child Care (Preschools)", "source": "PATCH" }, "geometry": { "type": "Point", "coordinates": [ -156.441103670904198, 20.724482168278431 ] } },
{ "type": "Feature", "properties": { "objectid": 154, "name": "MEO Head Start - Haiku", "address": "97 Pauwela Road", "city": "Haiku", "zip": 96708, "island_dist": "Maui", "type": "Licensed Group Child Care (Preschools)", "source": "PATCH" }, "geometry": { "type": "Point", "coordinates": [ -156.322437050139172, 20.926910099606719 ] } },
{ "type": "Feature", "properties": { "objectid": 155, "name": "MEO Head Start - Kahului A & B", "address": "615 South Papa Avenue", "city": "Kahului", "zip": 96732, "island_dist": "Maui", "type": "Licensed Group Child Care (Preschools)", "source": "PATCH" }, "geometry": { "type": "Point", "coordinates": [ -156.48019488721863, 20.874069845086648 ] } },
{ "type": "Feature", "properties": { "objectid": 156, "name": "Kaunakakai Head Start A", "address": "387 Kolapa Place", "city": "Kaunakakai", "zip": 96748, "island_dist": "Molokai", "type": "Licensed Group Child Care (Preschools)", "source": "PATCH" }, "geometry": { "type": "Point", "coordinates": [ -157.01303166398921, 21.088734265311437 ] } },
{ "type": "Feature", "properties": { "objectid": 157, "name": "MEO Head Start - Kihei A", "address": "250 East Lipoa Street", "city": "Kihei", "zip": 96753, "island_dist": "Maui", "type": "Licensed Group Child Care (Preschools)", "source": "PATCH" }, "geometry": { "type": "Point", "coordinates": [ -156.447038616058478, 20.74861468113043 ] } },
{ "type": "Feature", "properties": { "objectid": 158, "name": "MEO Head Start - Lahaina", "address": "816 Niheu Street", "city": "Lahaina", "zip": 96761, "island_dist": "Maui", "type": "Licensed Group Child Care (Preschools)", "source": "PATCH" }, "geometry": { "type": "Point", "coordinates": [ -156.663527523734786, 20.886307155632874 ] } },
{ "type": "Feature", "properties": { "objectid": 159, "name": "MEO Head Start - Makawao A & B", "address": "931-B Makawao Avenue", "city": "Makawao", "zip": 96768, "island_dist": "Maui", "type": "Licensed Group Child Care (Preschools)", "source": "PATCH" }, "geometry": { "type": "Point", "coordinates": [ -156.316266661424237, 20.8499953152307 ] } },
{ "type": "Feature", "properties": { "objectid": 160, "name": "MEO Head Start - Wailuku A ", "address": "670 Waiale Drive", "city": "Wailuku", "zip": 96793, "island_dist": "Maui", "type": "Licensed Group Child Care (Preschools)", "source": "PATCH" }, "geometry": { "type": "Point", "coordinates": [ -156.499459004254504, 20.87516817489513 ] } },
{ "type": "Feature", "properties": { "objectid": 161, "name": "MEO Head Start - Wailuku B", "address": "355 South High Street", "city": "Wailuku", "zip": 96793, "island_dist": "Maui", "type": "Licensed Group Child Care (Preschools)", "source": "PATCH" }, "geometry": { "type": "Point", "coordinates": [ -156.505107236784426, 20.882796985031415 ] } },
{ "type": "Feature", "properties": { "objectid": 162, "name": "Calvary Child Care Center", "address": "1215 Ala Aolani Street", "city": "Honolulu", "zip": 96819, "island_dist": "Oahu", "type": "Licensed Group Child Care (Preschools)", "source": "PATCH" }, "geometry": { "type": "Point", "coordinates": [ -157.898254500101302, 21.357207000043896 ] } },
{ "type": "Feature", "properties": { "objectid": 163, "name": "Cornerstone Early Education Center", "address": "95-1080 Ukuwai Street", "city": "Mililani", "zip": 96789, "island_dist": "Oahu", "type": "Licensed Group Child Care (Preschools)", "source": "PATCH" }, "geometry": { "type": "Point", "coordinates": [ -158.004275359815978, 21.469356363645506 ] } },
{ "type": "Feature", "properties": { "objectid": 164, "name": "Christian Academy - Preschool", "address": "3400 Moanalua Road", "city": "Honolulu", "zip": 96819, "island_dist": "Oahu", "type": "Licensed Group Child Care (Preschools)", "source": "PATCH" }, "geometry": { "type": "Point", "coordinates": [ -157.902901618541307, 21.365379301850567 ] } },
{ "type": "Feature", "properties": { "objectid": 165, "name": "First United Methodist Church Preschool", "address": "1020 South Beretania Street", "city": "Honolulu", "zip": 96814, "island_dist": "Oahu", "type": "Licensed Group Child Care (Preschools)", "source": "PATCH" }, "geometry": { "type": "Point", "coordinates": [ -157.847624729157559, 21.303202157183158 ] } },
{ "type": "Feature", "properties": { "objectid": 166, "name": "Holy Family Catholic Academy", "address": "830 Main Street", "city": "Honolulu", "zip": 96818, "island_dist": "Oahu", "type": "Licensed Group Child Care (Preschools)", "source": "PATCH" }, "geometry": { "type": "Point", "coordinates": [ -157.930594824626183, 21.337828512371217 ] } },
{ "type": "Feature", "properties": { "objectid": 167, "name": "Kamaaina Kids Honolulu", "address": "930 Lunalilo Street", "city": "Honolulu", "zip": 96822, "island_dist": "Oahu", "type": "Licensed Group Child Care (Preschools)", "source": "PATCH" }, "geometry": { "type": "Point", "coordinates": [ -157.847273999736274, 21.305772000398907 ] } },
{ "type": "Feature", "properties": { "objectid": 168, "name": "Our Savior Lutheran Preschool", "address": "98-1098 Moanalua Road", "city": "Aiea", "zip": 96701, "island_dist": "Oahu", "type": "Licensed Group Child Care (Preschools)", "source": "PATCH" }, "geometry": { "type": "Point", "coordinates": [ -157.93718151423144, 21.382667715761816 ] } },
{ "type": "Feature", "properties": { "objectid": 169, "name": "Kamaaina Kids Kahului Preschool", "address": "50 South Papa Avenue", "city": "Kahului", "zip": 96732, "island_dist": "Maui", "type": "Licensed Group Child Care (Preschools)", "source": "PATCH" }, "geometry": { "type": "Point", "coordinates": [ -156.483644481600834, 20.887703201649668 ] } },
{ "type": "Feature", "properties": { "objectid": 170, "name": "St. Anthony School Early Learning Center", "address": "148 Makawao Street", "city": "Kailua", "zip": 96734, "island_dist": "Oahu", "type": "Licensed Group Child Care (Preschools)", "source": "PATCH" }, "geometry": { "type": "Point", "coordinates": [ -157.739187943644282, 21.400284277275215 ] } },
{ "type": "Feature", "properties": { "objectid": 171, "name": "Sacred Hearts Academy-Early Learning Center", "address": "3253 Waialae Ave", "city": "Honolulu", "zip": 96816, "island_dist": "Oahu", "type": "Licensed Group Child Care (Preschools)", "source": "PATCH" }, "geometry": { "type": "Point", "coordinates": [ -157.806206999647344, 21.285801000385213 ] } },
{ "type": "Feature", "properties": { "objectid": 172, "name": "HCAP Head Start August Ahrens Elementary", "address": "94-1170 Waipahu Street", "city": "Waipahu", "zip": 96797, "island_dist": "Oahu", "type": "Licensed Group Child Care (Preschools)", "source": "PATCH" }, "geometry": { "type": "Point", "coordinates": [ -158.00177699990067, 21.394439999597164 ] } },
{ "type": "Feature", "properties": { "objectid": 173, "name": "HCAP Head Start Kaimiloa Elementary", "address": "91-1028 Kaunolu Street", "city": "Ewa Beach", "zip": 96706, "island_dist": "Oahu", "type": "Licensed Group Child Care (Preschools)", "source": "PATCH" }, "geometry": { "type": "Point", "coordinates": [ -158.008504752699452, 21.319657995969429 ] } },
{ "type": "Feature", "properties": { "objectid": 174, "name": "HCAP Head Start Lanakila CDC I & II", "address": "1701 Lanakila Avenue", "city": "Honolulu", "zip": 96817, "island_dist": "Oahu", "type": "Licensed Group Child Care (Preschools)", "source": "PATCH" }, "geometry": { "type": "Point", "coordinates": [ -157.861871999871596, 21.325914000337352 ] } },
{ "type": "Feature", "properties": { "objectid": 175, "name": "HCAP Head Start Lanakila Elementary", "address": "717 N Kuakini Street", "city": "Honolulu", "zip": 96817, "island_dist": "Oahu", "type": "Licensed Group Child Care (Preschools)", "source": "PATCH" }, "geometry": { "type": "Point", "coordinates": [ -157.860486000219396, 21.326607000039814 ] } },
{ "type": "Feature", "properties": { "objectid": 176, "name": "Jefferson II Head Start", "address": "324 Kapahulu Avenue", "city": "Honolulu", "zip": 96815, "island_dist": "Oahu", "type": "Licensed Group Child Care (Preschools)", "source": "PATCH" }, "geometry": { "type": "Point", "coordinates": [ -157.818512078363, 21.272457034332263 ] } },
{ "type": "Feature", "properties": { "objectid": 177, "name": "Mililani Baptist Preschool", "address": "94-293 Anania Drive", "city": "Mililani", "zip": 96789, "island_dist": "Oahu", "type": "Licensed Group Child Care (Preschools)", "source": "PATCH" }, "geometry": { "type": "Point", "coordinates": [ -158.010133500066217, 21.440718000141686 ] } },
{ "type": "Feature", "properties": { "objectid": 178, "name": "Jikoen Hongwanji Lumbini Preschool", "address": "1731 North School St", "city": "Honolulu", "zip": 96819, "island_dist": "Oahu", "type": "Licensed Group Child Care (Preschools)", "source": "PATCH" }, "geometry": { "type": "Point", "coordinates": [ -157.8703275003719, 21.336228000396446 ] } },
{ "type": "Feature", "properties": { "objectid": 179, "name": "Montessori Community School", "address": "1239 Nehoa St", "city": "Honolulu", "zip": 96822, "island_dist": "Oahu", "type": "Licensed Group Child Care (Preschools)", "source": "PATCH" }, "geometry": { "type": "Point", "coordinates": [ -157.83632008839038, 21.308825390696178 ] } },
{ "type": "Feature", "properties": { "objectid": 180, "name": "St John Vianney Early Learning Center", "address": "940 Keolu Drive", "city": "Kailua", "zip": 96734, "island_dist": "Oahu", "type": "Licensed Group Child Care (Preschools)", "source": "PATCH" }, "geometry": { "type": "Point", "coordinates": [ -157.728675945412789, 21.379641885169235 ] } },
{ "type": "Feature", "properties": { "objectid": 181, "name": "Waiokeola Church Preschool", "address": "4705 Kilauea Avenue", "city": "Honolulu", "zip": 96816, "island_dist": "Oahu", "type": "Licensed Group Child Care (Preschools)", "source": "PATCH" }, "geometry": { "type": "Point", "coordinates": [ -157.78465679987508, 21.27683983956442 ] } },
{ "type": "Feature", "properties": { "objectid": 182, "name": "The Childrens Center, Inc", "address": "2651 A Pali Hwy", "city": "Honolulu", "zip": 96817, "island_dist": "Oahu", "type": "Licensed Group Child Care (Preschools)", "source": "PATCH" }, "geometry": { "type": "Point", "coordinates": [ -157.842328499702518, 21.330710999917446 ] } },
{ "type": "Feature", "properties": { "objectid": 183, "name": "Sunshine School", "address": "175 Kihapai St, #A", "city": "Kailua", "zip": 96734, "island_dist": "Oahu", "type": "Licensed Group Child Care (Preschools)", "source": "PATCH" }, "geometry": { "type": "Point", "coordinates": [ -157.748703165353703, 21.395375530044106 ] } },
{ "type": "Feature", "properties": { "objectid": 184, "name": "Playmate Kindergarten Day Care Center & Grade School LTD", "address": "1704 Keeaumoku St", "city": "Honolulu", "zip": 96822, "island_dist": "Oahu", "type": "Licensed Group Child Care (Preschools)", "source": "PATCH" }, "geometry": { "type": "Point", "coordinates": [ -157.835061000163961, 21.306276000262983 ] } },
{ "type": "Feature", "properties": { "objectid": 185, "name": "Little Friends Learning Center", "address": "2313 Nuuanu Avenue", "city": "Honolulu", "zip": 96817, "island_dist": "Oahu", "type": "Licensed Group Child Care (Preschools)", "source": "PATCH" }, "geometry": { "type": "Point", "coordinates": [ -157.84729719353399, 21.326461817718076 ] } },
{ "type": "Feature", "properties": { "objectid": 186, "name": "Kamaaina Kids Aikahi", "address": "38 Kaneohe Bay Drive", "city": "Kailua", "zip": 96734, "island_dist": "Oahu", "type": "Licensed Group Child Care (Preschools)", "source": "PATCH" }, "geometry": { "type": "Point", "coordinates": [ -157.749165000237696, 21.422105999704762 ] } },
{ "type": "Feature", "properties": { "objectid": 187, "name": "Kamaaina Kids St. Marks Childrens Center", "address": "539 Kapahulu Ave", "city": "Honolulu", "zip": 96815, "island_dist": "Oahu", "type": "Licensed Group Child Care (Preschools)", "source": "PATCH" }, "geometry": { "type": "Point", "coordinates": [ -157.814134979704789, 21.277528010271144 ] } },
{ "type": "Feature", "properties": { "objectid": 188, "name": "Kamaaina Kids Enchanted Lakes", "address": "1425 Keolu Dr", "city": "Kailua", "zip": 96734, "island_dist": "Oahu", "type": "Licensed Group Child Care (Preschools)", "source": "PATCH" }, "geometry": { "type": "Point", "coordinates": [ -157.734934838758733, 21.371214565269387 ] } },
{ "type": "Feature", "properties": { "objectid": 189, "name": "Kamaaina Kids CFS Ewa Preschool", "address": "91-1841 Fort Weaver Road", "city": "Ewa Beach", "zip": 96706, "island_dist": "Oahu", "type": "Licensed Group Child Care (Preschools)", "source": "PATCH" }, "geometry": { "type": "Point", "coordinates": [ -158.028752534556332, 21.354376507183119 ] } },
{ "type": "Feature", "properties": { "objectid": 190, "name": "Kamaaina Kids Moanalua", "address": "4857 Bougainville Drive", "city": "Honolulu", "zip": 96818, "island_dist": "Oahu", "type": "Licensed Group Child Care (Preschools)", "source": "PATCH" }, "geometry": { "type": "Point", "coordinates": [ -157.930658172359728, 21.344400093911993 ] } },
{ "type": "Feature", "properties": { "objectid": 191, "name": "Leeward Community College Children's Center", "address": "96-045 Ala Ike Street #DA102", "city": "Pearl City", "zip": 96782, "island_dist": "Oahu", "type": "Licensed Group Child Care (Preschools)", "source": "PATCH" }, "geometry": { "type": "Point", "coordinates": [ -157.984186500099042, 21.392217000126728 ] } },
{ "type": "Feature", "properties": { "objectid": 192, "name": "Kailua Baptist Preschool", "address": "1080 Kailua Road", "city": "Kailua", "zip": 96734, "island_dist": "Oahu", "type": "Licensed Group Child Care (Preschools)", "source": "PATCH" }, "geometry": { "type": "Point", "coordinates": [ -157.75045216385854, 21.387177992422195 ] } },
{ "type": "Feature", "properties": { "objectid": 193, "name": "Na Kamalii Hoaloha", "address": "670 Maunaloa Highway", "city": "Kaunakakai", "zip": 96748, "island_dist": "Molokai", "type": "Licensed Group Child Care (Preschools)", "source": "PATCH" }, "geometry": { "type": "Point", "coordinates": [ -157.036779399931788, 21.096858043605696 ] } },
{ "type": "Feature", "properties": { "objectid": 194, "name": "Ark Of Safety Christian Academy", "address": "86-120 Farrington Hwy., Ste A109-A110", "city": "Waianae", "zip": 96792, "island_dist": "Oahu", "type": "Licensed Group Child Care (Preschools)", "source": "PATCH" }, "geometry": { "type": "Point", "coordinates": [ -158.184905688256976, 21.435833218087343 ] } },
{ "type": "Feature", "properties": { "objectid": 195, "name": "Kamaaina Kids Alewa Heights At St Marks Coptic Ort", "address": "1052 Ilima Drive", "city": "Honolulu", "zip": 96817, "island_dist": "Oahu", "type": "Licensed Group Child Care (Preschools)", "source": "PATCH" }, "geometry": { "type": "Point", "coordinates": [ -157.857205564902671, 21.333846162305957 ] } },
{ "type": "Feature", "properties": { "objectid": 196, "name": "Jefferson Pre-Plus Head Start", "address": "324 Kapahulu Avenue", "city": "Honolulu", "zip": 96815, "island_dist": "Oahu", "type": "Licensed Group Child Care (Preschools)", "source": "PATCH" }, "geometry": { "type": "Point", "coordinates": [ -157.818512078363, 21.272457034332263 ] } },
{ "type": "Feature", "properties": { "objectid": 197, "name": "Grace Bible Christian Preschool", "address": "635 South Hina Avenue", "city": "Kahului", "zip": 96732, "island_dist": "Maui", "type": "Licensed Group Child Care (Preschools)", "source": "PATCH" }, "geometry": { "type": "Point", "coordinates": [ -156.464863591720615, 20.875876102419426 ] } },
{ "type": "Feature", "properties": { "objectid": 198, "name": "HCAP Head Start Waiau Elementary Pre-plus", "address": "98-450 Hookanike Street", "city": "Pearl City", "zip": 96782, "island_dist": "Oahu", "type": "Licensed Group Child Care (Preschools)", "source": "PATCH" }, "geometry": { "type": "Point", "coordinates": [ -157.954250424043664, 21.398305333250079 ] } },
{ "type": "Feature", "properties": { "objectid": 199, "name": "Calvary Chapel Christian Preschool", "address": "98-1016 Komo Mai Drive", "city": "Aiea", "zip": 96701, "island_dist": "Oahu", "type": "Licensed Group Child Care (Preschools)", "source": "PATCH" }, "geometry": { "type": "Point", "coordinates": [ -157.947841866281209, 21.400559159153705 ] } },
{ "type": "Feature", "properties": { "objectid": 200, "name": "Joyland Preschool ", "address": "1407 Kapiolani Street", "city": "Hilo", "zip": 96720, "island_dist": "East Hawaii", "type": "Licensed Group Child Care (Preschools)", "source": "PATCH" }, "geometry": { "type": "Point", "coordinates": [ -155.077996089277519, 19.702244817346902 ] } },
{ "type": "Feature", "properties": { "objectid": 201, "name": "Mid-Pacific Institute Preschool", "address": "2445 Kaala Street", "city": "Honolulu", "zip": 96822, "island_dist": "Oahu", "type": "Licensed Group Child Care (Preschools)", "source": "PATCH" }, "geometry": { "type": "Point", "coordinates": [ -157.817989081519755, 21.303252055441043 ] } },
{ "type": "Feature", "properties": { "objectid": 202, "name": "The Cole Academy Kaimuki", "address": "1041 10th Avenue", "city": "Honolulu", "zip": 96816, "island_dist": "Oahu", "type": "Licensed Group Child Care (Preschools)", "source": "PATCH" }, "geometry": { "type": "Point", "coordinates": [ -157.802242737009436, 21.281795655028301 ] } },
{ "type": "Feature", "properties": { "objectid": 203, "name": "Kamaaina Kids Lahaina Preschool", "address": "553 Wainee Street", "city": "Lahaina", "zip": 96761, "island_dist": "Maui", "type": "Licensed Group Child Care (Preschools)", "source": "PATCH" }, "geometry": { "type": "Point", "coordinates": [ -156.673577798702922, 20.870610298371179 ] } },
{ "type": "Feature", "properties": { "objectid": 204, "name": "HCAP Head Start Kuhio Elementary Pre-plus", "address": "2759 South King Street", "city": "Honolulu", "zip": 96826, "island_dist": "Oahu", "type": "Licensed Group Child Care (Preschools)", "source": "PATCH" }, "geometry": { "type": "Point", "coordinates": [ -157.819778999610918, 21.289212000133428 ] } },
{ "type": "Feature", "properties": { "objectid": 205, "name": "Kansha Preschool", "address": "3 Go For Broke Place", "city": "Wailuku", "zip": 96793, "island_dist": "Maui", "type": "Licensed Group Child Care (Preschools)", "source": "PATCH" }, "geometry": { "type": "Point", "coordinates": [ -156.501835000161947, 20.884780000271736 ] } },
{ "type": "Feature", "properties": { "objectid": 206, "name": "Seagull School At Ocean Pointe", "address": "91-203 Kaimele Place", "city": "Ewa Beach", "zip": 96706, "island_dist": "Oahu", "type": "Licensed Group Child Care (Preschools)", "source": "PATCH" }, "geometry": { "type": "Point", "coordinates": [ -158.019201389571066, 21.322517701929254 ] } },
{ "type": "Feature", "properties": { "objectid": 207, "name": "Kamaaina Kids Kaneohe Preschool", "address": "45-520 Keaahala Road", "city": "Kaneohe", "zip": 96744, "island_dist": "Oahu", "type": "Licensed Group Child Care (Preschools)", "source": "PATCH" }, "geometry": { "type": "Point", "coordinates": [ -157.80217730882498, 21.413710977781026 ] } },
{ "type": "Feature", "properties": { "objectid": 208, "name": "Pearl Harbor Christian Academy Preschool", "address": "94-1044 Waipio Uka Street", "city": "Waipahu", "zip": 96797, "island_dist": "Oahu", "type": "Licensed Group Child Care (Preschools)", "source": "PATCH" }, "geometry": { "type": "Point", "coordinates": [ -157.99927500030546, 21.413250000311763 ] } },
{ "type": "Feature", "properties": { "objectid": 209, "name": "Stepping Stones Academy Kakaako", "address": "860 Halekauwila St #103", "city": "Honolulu", "zip": 96813, "island_dist": "Oahu", "type": "Licensed Group Child Care (Preschools)", "source": "PATCH" }, "geometry": { "type": "Point", "coordinates": [ -157.856143499900099, 21.298274999614215 ] } },
{ "type": "Feature", "properties": { "objectid": 210, "name": "Maui Preparatory Academy Preschool", "address": "4910 Honoapiilani Hwy", "city": "Lahaina", "zip": 96761, "island_dist": "Maui", "type": "Licensed Group Child Care (Preschools)", "source": "PATCH" }, "geometry": { "type": "Point", "coordinates": [ -156.664506949700609, 20.984539515289839 ] } },
{ "type": "Feature", "properties": { "objectid": 211, "name": "Alaka`i Academy", "address": "74-5565 Luhia Street", "city": "Kailua-kona", "zip": 96740, "island_dist": "West Hawaii", "type": "Licensed Group Child Care (Preschools)", "source": "PATCH" }, "geometry": { "type": "Point", "coordinates": [ -156.000236926909565, 19.648012836965602 ] } },
{ "type": "Feature", "properties": { "objectid": 212, "name": "Kamehameha Aapueo Preschool", "address": "270 Aapueo Parkway", "city": "Pukalani", "zip": 96768, "island_dist": "Maui", "type": "Licensed Group Child Care (Preschools)", "source": "PATCH" }, "geometry": { "type": "Point", "coordinates": [ -156.33523558837777, 20.823155488202211 ] } },
{ "type": "Feature", "properties": { "objectid": 213, "name": "Keiki Care Center Of Hawaii", "address": "757 Hoomalu St.", "city": "Pearl City", "zip": 96782, "island_dist": "Oahu", "type": "Licensed Group Child Care (Preschools)", "source": "PATCH" }, "geometry": { "type": "Point", "coordinates": [ -157.966109999549815, 21.395852999910726 ] } },
{ "type": "Feature", "properties": { "objectid": 214, "name": "Poppins Keiki Hawaii", "address": "2255 Kalakaua Avenue, Suite 435", "city": "Honolulu", "zip": 96815, "island_dist": "Oahu", "type": "Licensed Group Child Care (Preschools)", "source": "PATCH" }, "geometry": { "type": "Point", "coordinates": [ -157.83038999967826, 21.277431000431758 ] } },
{ "type": "Feature", "properties": { "objectid": 215, "name": "HCAP Head Start Ewa I & II", "address": "91-1280 Renton Road", "city": "Ewa Beach", "zip": 96706, "island_dist": "Oahu", "type": "Licensed Group Child Care (Preschools)", "source": "PATCH" }, "geometry": { "type": "Point", "coordinates": [ -158.03383631714982, 21.34399473577016 ] } },
{ "type": "Feature", "properties": { "objectid": 216, "name": "Kamaaina Kids Kalaeloa Preschool", "address": "1965 Bougainville Avenue", "city": "Kapolei", "zip": 96707, "island_dist": "Oahu", "type": "Licensed Group Child Care (Preschools)", "source": "PATCH" }, "geometry": { "type": "Point", "coordinates": [ -158.05851456629685, 21.326194645261985 ] } },
{ "type": "Feature", "properties": { "objectid": 217, "name": "Little Explorers Maui Preschool, LLC", "address": "1050 Lower Main Street", "city": "Wailuku", "zip": 96793, "island_dist": "Maui", "type": "Licensed Group Child Care (Preschools)", "source": "PATCH" }, "geometry": { "type": "Point", "coordinates": [ -156.489372863097969, 20.899209990866222 ] } },
{ "type": "Feature", "properties": { "objectid": 218, "name": "HCAP Head Start Waipahu Pre Plus", "address": "94-465 Waipahu Street", "city": "Waipahu", "zip": 96797, "island_dist": "Oahu", "type": "Licensed Group Child Care (Preschools)", "source": "PATCH" }, "geometry": { "type": "Point", "coordinates": [ -158.015957307816564, 21.385518110670048 ] } },
{ "type": "Feature", "properties": { "objectid": 219, "name": "T.R.A.C.E. Academy", "address": "94-1388 Moaniani Street #205", "city": "Waipahu", "zip": 96797, "island_dist": "Oahu", "type": "Licensed Group Child Care (Preschools)", "source": "PATCH" }, "geometry": { "type": "Point", "coordinates": [ -157.99603950041552, 21.421808999721968 ] } },
{ "type": "Feature", "properties": { "objectid": 220, "name": "Happy Keiki Preschool At University Avenue", "address": "1035 University Avenue", "city": "Honolulu", "zip": 96826, "island_dist": "Oahu", "type": "Licensed Group Child Care (Preschools)", "source": "PATCH" }, "geometry": { "type": "Point", "coordinates": [ -157.821437883260529, 21.29282729761356 ] } },
{ "type": "Feature", "properties": { "objectid": 221, "name": "Kamaaina Kids Holy Trinity Preschool", "address": "5919 Kalanianaole Highway", "city": "Honolulu", "zip": 96821, "island_dist": "Oahu", "type": "Licensed Group Child Care (Preschools)", "source": "PATCH" }, "geometry": { "type": "Point", "coordinates": [ -157.728910500052962, 21.282749999667882 ] } },
{ "type": "Feature", "properties": { "objectid": 222, "name": "Mauna Loa Preschool ", "address": "172 Kapiolani Street", "city": "Hilo", "zip": 96720, "island_dist": "East Hawaii", "type": "Licensed Group Child Care (Preschools)", "source": "PATCH" }, "geometry": { "type": "Point", "coordinates": [ -155.088563115933852, 19.719740841030518 ] } },
{ "type": "Feature", "properties": { "objectid": 223, "name": "Seagull School At Ko Olina", "address": "92-1415 Aliinui Dr.", "city": "Kapolei", "zip": 96707, "island_dist": "Oahu", "type": "Licensed Group Child Care (Preschools)", "source": "PATCH" }, "geometry": { "type": "Point", "coordinates": [ -158.115476664243744, 21.336078197362482 ] } },
{ "type": "Feature", "properties": { "objectid": 224, "name": "HCAP Head Start August Ahrens Elementary II", "address": "94-1170 Waipahu St.", "city": "Waipahu", "zip": 96797, "island_dist": "Oahu", "type": "Licensed Group Child Care (Preschools)", "source": "PATCH" }, "geometry": { "type": "Point", "coordinates": [ -158.00177699990067, 21.394439999597164 ] } },
{ "type": "Feature", "properties": { "objectid": 225, "name": "Harris Preschool", "address": "20 South Vineyard Blvd.", "city": "Honolulu", "zip": 96813, "island_dist": "Oahu", "type": "Licensed Group Child Care (Preschools)", "source": "PATCH" }, "geometry": { "type": "Point", "coordinates": [ -157.857245582981932, 21.314016334411704 ] } },
{ "type": "Feature", "properties": { "objectid": 226, "name": "Jumpstart Preschool Hilo ", "address": "317 Lehua Street", "city": "Hilo", "zip": 96720, "island_dist": "East Hawaii", "type": "Licensed Group Child Care (Preschools)", "source": "PATCH" }, "geometry": { "type": "Point", "coordinates": [ -155.0903432384263, 19.730366017340121 ] } },
{ "type": "Feature", "properties": { "objectid": 227, "name": "Disney`s Aunty`s Beach House At Aulani", "address": "92-1185 Aliinui Drive.", "city": "Kapolei", "zip": 96707, "island_dist": "Oahu", "type": "Licensed Group Child Care (Preschools)", "source": "PATCH" }, "geometry": { "type": "Point", "coordinates": [ -158.124347999808037, 21.339278999928087 ] } },
{ "type": "Feature", "properties": { "objectid": 228, "name": "The Cole Academy - Kapolei", "address": "1033 Ala Kahawai St.", "city": "Kapolei", "zip": 96707, "island_dist": "Oahu", "type": "Licensed Group Child Care (Preschools)", "source": "PATCH" }, "geometry": { "type": "Point", "coordinates": [ -158.078807999750694, 21.333249000120347 ] } },
{ "type": "Feature", "properties": { "objectid": 229, "name": "Kroc Keiki Learning Center", "address": "91-3257 Kualakai Parkway", "city": "Ewa Beach", "zip": 96706, "island_dist": "Oahu", "type": "Licensed Group Child Care (Preschools)", "source": "PATCH" }, "geometry": { "type": "Point", "coordinates": [ -158.049090000152205, 21.346101000271929 ] } },
{ "type": "Feature", "properties": { "objectid": 230, "name": "Kamaaina Kids St. Timothy's Academy Preschool Prog", "address": "98-939 Moanalua Road.", "city": "Aiea", "zip": 96701, "island_dist": "Oahu", "type": "Licensed Group Child Care (Preschools)", "source": "PATCH" }, "geometry": { "type": "Point", "coordinates": [ -157.945193714995696, 21.387698365922038 ] } },
{ "type": "Feature", "properties": { "objectid": 231, "name": "Makua Lani Christian Academy; 4 Yr Old Kindergarte", "address": "74-4907 Palani Road", "city": "Kailua-kona", "zip": 96740, "island_dist": "West Hawaii", "type": "Licensed Group Child Care (Preschools)", "source": "PATCH" }, "geometry": { "type": "Point", "coordinates": [ -155.975471443524896, 19.681576966211683 ] } },
{ "type": "Feature", "properties": { "objectid": 232, "name": "Wee Achievers Inc ", "address": "45-119 Kaneohe Bay Drive", "city": "Kaneohe", "zip": 96744, "island_dist": "Oahu", "type": "Licensed Group Child Care (Preschools)", "source": "PATCH" }, "geometry": { "type": "Point", "coordinates": [ -157.781306916134866, 21.407661186989845 ] } },
{ "type": "Feature", "properties": { "objectid": 233, "name": "Maui Adventist Pre Elementary School", "address": "261 South Puunene Avenue", "city": "Kahului", "zip": 96732, "island_dist": "Maui", "type": "Licensed Group Child Care (Preschools)", "source": "PATCH" }, "geometry": { "type": "Point", "coordinates": [ -156.464163727324632, 20.884463463692292 ] } },
{ "type": "Feature", "properties": { "objectid": 234, "name": "St Patrick School Early Childhood Program", "address": "3320 Harding Ave.", "city": "Honolulu", "zip": 96816, "island_dist": "Oahu", "type": "Licensed Group Child Care (Preschools)", "source": "PATCH" }, "geometry": { "type": "Point", "coordinates": [ -157.805383500130858, 21.285153000246272 ] } },
{ "type": "Feature", "properties": { "objectid": 235, "name": "HCAP Head Start Pauoa", "address": "2301 Pauoa Rd", "city": "Honolulu", "zip": 96813, "island_dist": "Oahu", "type": "Licensed Group Child Care (Preschools)", "source": "PATCH" }, "geometry": { "type": "Point", "coordinates": [ -157.843493999744879, 21.318569999891164 ] } },
{ "type": "Feature", "properties": { "objectid": 236, "name": "HCAP Head Start Queen Kaahumanu Elementary School", "address": "1141 Kinau St", "city": "Honolulu", "zip": 96814, "island_dist": "Oahu", "type": "Licensed Group Child Care (Preschools)", "source": "PATCH" }, "geometry": { "type": "Point", "coordinates": [ -157.843504539450237, 21.302695627155927 ] } },
{ "type": "Feature", "properties": { "objectid": 237, "name": "HCAP Head Start Ewa Elementary Pre-plus", "address": "91-1280 Renton Rd", "city": "Ewa Beach", "zip": 96706, "island_dist": "Oahu", "type": "Licensed Group Child Care (Preschools)", "source": "PATCH" }, "geometry": { "type": "Point", "coordinates": [ -158.03383631714982, 21.34399473577016 ] } },
{ "type": "Feature", "properties": { "objectid": 238, "name": "Kidz Kare Preschool at Pearl City Elementary School", "address": "1090 Waimano Home Rd, Rm 11", "city": "Pearl City", "zip": 96782, "island_dist": "Oahu", "type": "Licensed Group Child Care (Preschools)", "source": "PATCH" }, "geometry": { "type": "Point", "coordinates": [ -157.972149000250113, 21.395312999936571 ] } },
{ "type": "Feature", "properties": { "objectid": 239, "name": "Fun 2 , 3 Preschool", "address": "8992 Kula Highway", "city": "Kula", "zip": 96790, "island_dist": "Maui", "type": "Licensed Group Child Care (Preschools)", "source": "PATCH" }, "geometry": { "type": "Point", "coordinates": [ -156.354084905347179, 20.707245970594855 ] } },
{ "type": "Feature", "properties": { "objectid": 240, "name": "New Hope Christian School", "address": "94-050 Farrington Highway, Suite C-2", "city": "Waipahu", "zip": 96797, "island_dist": "Oahu", "type": "Licensed Group Child Care (Preschools)", "source": "PATCH" }, "geometry": { "type": "Point", "coordinates": [ -158.024812500204774, 21.378573000159363 ] } },
{ "type": "Feature", "properties": { "objectid": 241, "name": "Bright Beginning Preschool", "address": "54-113 Kawaipuna St.", "city": "Hauula", "zip": 96717, "island_dist": "Oahu", "type": "Licensed Group Child Care (Preschools)", "source": "PATCH" }, "geometry": { "type": "Point", "coordinates": [ -157.915906148377331, 21.618373440046266 ] } },
{ "type": "Feature", "properties": { "objectid": 242, "name": "Imua Inclusion Preschool", "address": "161 South Wakea Avenue", "city": "Kahului", "zip": 96732, "island_dist": "Maui", "type": "Licensed Group Child Care (Preschools)", "source": "PATCH" }, "geometry": { "type": "Point", "coordinates": [ -156.476983904350959, 20.884791054220489 ] } },
{ "type": "Feature", "properties": { "objectid": 243, "name": "The Cole Academy - Mililani", "address": "94-359 Makohilani Street", "city": "Mililani", "zip": 96789, "island_dist": "Oahu", "type": "Licensed Group Child Care (Preschools)", "source": "PATCH" }, "geometry": { "type": "Point", "coordinates": [ -158.018899499708709, 21.433283999791406 ] } },
{ "type": "Feature", "properties": { "objectid": 244, "name": "Na Maka Kindergarten Prep School", "address": "94-450 Mokuola Street, Ste 102", "city": "Waipahu", "zip": 96797, "island_dist": "Oahu", "type": "Licensed Group Child Care (Preschools)", "source": "PATCH" }, "geometry": { "type": "Point", "coordinates": [ -158.007186623266733, 21.388101374076417 ] } },
{ "type": "Feature", "properties": { "objectid": 245, "name": "HCAP Head Start Iroquois Point", "address": "5553 Cormorant Ave", "city": "Ewa Beach", "zip": 96706, "island_dist": "Oahu", "type": "Licensed Group Child Care (Preschools)", "source": "PATCH" }, "geometry": { "type": "Point", "coordinates": [ -157.981516118840005, 21.318986993850277 ] } },
{ "type": "Feature", "properties": { "objectid": 246, "name": "Kamaaina Kids Maili Preschool", "address": "87-227 St John's Road", "city": "Waianae", "zip": 96792, "island_dist": "Oahu", "type": "Licensed Group Child Care (Preschools)", "source": "PATCH" }, "geometry": { "type": "Point", "coordinates": [ -158.172661739850867, 21.416797763088031 ] } },
{ "type": "Feature", "properties": { "objectid": 247, "name": "St. Francis Preschool", "address": "91-1758 Oohao St", "city": "Ewa Beach", "zip": 96706, "island_dist": "Oahu", "type": "Licensed Group Child Care (Preschools)", "source": "PATCH" }, "geometry": { "type": "Point", "coordinates": [ -158.033501884064947, 21.343326329854523 ] } },
{ "type": "Feature", "properties": { "objectid": 248, "name": "Strode Montessori Preschool", "address": "810 Richards Street #124", "city": "Honolulu", "zip": 96813, "island_dist": "Oahu", "type": "Licensed Group Child Care (Preschools)", "source": "PATCH" }, "geometry": { "type": "Point", "coordinates": [ -157.861530000251889, 21.306564000331097 ] } },
{ "type": "Feature", "properties": { "objectid": 249, "name": "Metro Christian Academy", "address": "429 Waiakamilo Road", "city": "Honolulu", "zip": 96817, "island_dist": "Oahu", "type": "Licensed Group Child Care (Preschools)", "source": "PATCH" }, "geometry": { "type": "Point", "coordinates": [ -157.877545499730871, 21.322206000371995 ] } },
{ "type": "Feature", "properties": { "objectid": 250, "name": "Little Monk Seal Montessori", "address": "300 Ohukai Rd Ste B206", "city": "Kihei", "zip": 96753, "island_dist": "Maui", "type": "Licensed Group Child Care (Preschools)", "source": "PATCH" }, "geometry": { "type": "Point", "coordinates": [ -156.451560940526605, 20.774445893631686 ] } },
{ "type": "Feature", "properties": { "objectid": 251, "name": "Moo School", "address": "2752 Woodlawn Drive, Ste 5-114", "city": "Honolulu", "zip": 96822, "island_dist": "Oahu", "type": "Licensed Group Child Care (Preschools)", "source": "PATCH" }, "geometry": { "type": "Point", "coordinates": [ -157.809677278378786, 21.307579876243636 ] } },
{ "type": "Feature", "properties": { "objectid": 252, "name": "Waipuna Chapel Preschool", "address": "17 Omaopio Road", "city": "Kula", "zip": 96790, "island_dist": "Maui", "type": "Licensed Group Child Care (Preschools)", "source": "PATCH" }, "geometry": { "type": "Point", "coordinates": [ -156.326214944186773, 20.79725714722322 ] } },
{ "type": "Feature", "properties": { "objectid": 253, "name": "Kamaaina Kids Judd Street Preschool", "address": "45 Judd Street", "city": "Honolulu", "zip": 96817, "island_dist": "Oahu", "type": "Licensed Group Child Care (Preschools)", "source": "PATCH" }, "geometry": { "type": "Point", "coordinates": [ -157.850721290009943, 21.323160505953531 ] } },
{ "type": "Feature", "properties": { "objectid": 254, "name": "Kulaniakea Preschool", "address": "45-114 Waikapoki Road", "city": "Kaneohe", "zip": 96744, "island_dist": "Oahu", "type": "Licensed Group Child Care (Preschools)", "source": "PATCH" }, "geometry": { "type": "Point", "coordinates": [ -157.792862457547983, 21.415854479794955 ] } },
{ "type": "Feature", "properties": { "objectid": 255, "name": "Na Maka Kindergarten Prep School - Mililani", "address": "95-390 Kuahelani Ave, Ste 3f", "city": "Mililani", "zip": 96789, "island_dist": "Oahu", "type": "Licensed Group Child Care (Preschools)", "source": "PATCH" }, "geometry": { "type": "Point", "coordinates": [ -158.014489365932263, 21.458215183866489 ] } },
{ "type": "Feature", "properties": { "objectid": 256, "name": "Kihei Baptist Preschool", "address": "1655 South Kihei Road", "city": "Kihei", "zip": 96753, "island_dist": "Maui", "type": "Licensed Group Child Care (Preschools)", "source": "PATCH" }, "geometry": { "type": "Point", "coordinates": [ -156.45411229294163, 20.739210894066634 ] } },
{ "type": "Feature", "properties": { "objectid": 257, "name": "Kamaaina Kids Maui Evangelical Preschool", "address": "256 Hina Avenue", "city": "Kahului", "zip": 96732, "island_dist": "Maui", "type": "Licensed Group Child Care (Preschools)", "source": "PATCH" }, "geometry": { "type": "Point", "coordinates": [ -156.473882721294558, 20.88153297589351 ] } },
{ "type": "Feature", "properties": { "objectid": 258, "name": "Kamaaina Kids Makawao Preschool", "address": "55 Makawao Avenue", "city": "Pukalani", "zip": 96768, "island_dist": "Maui", "type": "Licensed Group Child Care (Preschools)", "source": "PATCH" }, "geometry": { "type": "Point", "coordinates": [ -156.332544850772393, 20.834693746669746 ] } },
{ "type": "Feature", "properties": { "objectid": 259, "name": "HCAP Head Start Pohakea II", "address": "91-750 Ft. Weaver Rd. C3", "city": "Ewa Beach", "zip": 96706, "island_dist": "Oahu", "type": "Licensed Group Child Care (Preschools)", "source": "PATCH" }, "geometry": { "type": "Point", "coordinates": [ -158.009710500360171, 21.315762000394649 ] } },
{ "type": "Feature", "properties": { "objectid": 260, "name": "St Elizabeth Preschool", "address": "99-312 Moanalua Road", "city": "Aiea", "zip": 96701, "island_dist": "Oahu", "type": "Licensed Group Child Care (Preschools)", "source": "PATCH" }, "geometry": { "type": "Point", "coordinates": [ -157.929921751331648, 21.376211582230969 ] } },
{ "type": "Feature", "properties": { "objectid": 261, "name": "Children With Aloha Academy", "address": "550 Halekauwila Street #102-107", "city": "Honolulu", "zip": 96813, "island_dist": "Oahu", "type": "Licensed Group Child Care (Preschools)", "source": "PATCH" }, "geometry": { "type": "Point", "coordinates": [ -157.860480354126651, 21.302707881216751 ] } },
{ "type": "Feature", "properties": { "objectid": 262, "name": "The Growing Patch 24-Hour Children's Academy ", "address": "99-080 Kauhale St, Ste D14-15", "city": "Aiea", "zip": 96701, "island_dist": "Oahu", "type": "Licensed Group Child Care (Preschools)", "source": "PATCH" }, "geometry": { "type": "Point", "coordinates": [ -157.931679685903049, 21.379093373290068 ] } },
{ "type": "Feature", "properties": { "objectid": 263, "name": "Jumpstart Preschool", "address": "2550 Pali Highway", "city": "Honolulu", "zip": 96817, "island_dist": "Oahu", "type": "Licensed Group Child Care (Preschools)", "source": "PATCH" }, "geometry": { "type": "Point", "coordinates": [ -157.844340517074073, 21.330450752651704 ] } },
{ "type": "Feature", "properties": { "objectid": 264, "name": "Ala Wai Elementary Head Start", "address": "503 Kamoku St E-33", "city": "Honolulu", "zip": 96826, "island_dist": "Oahu", "type": "Licensed Group Child Care (Preschools)", "source": "PATCH" }, "geometry": { "type": "Point", "coordinates": [ -157.826731499644382, 21.284730000017341 ] } },
{ "type": "Feature", "properties": { "objectid": 265, "name": "The Cole Acadamy - Mauna Lani", "address": "68-148 Hoohana Street", "city": "Kamuela", "zip": 96743, "island_dist": "West Hawaii", "type": "Licensed Group Child Care (Preschools)", "source": "PATCH" }, "geometry": { "type": "Point", "coordinates": [ -155.850154043470837, 19.945289328960659 ] } },
{ "type": "Feature", "properties": { "objectid": 266, "name": "Kamaaina Kids King Street", "address": "1054 South King Street", "city": "Honolulu", "zip": 96814, "island_dist": "Oahu", "type": "Licensed Group Child Care (Preschools)", "source": "PATCH" }, "geometry": { "type": "Point", "coordinates": [ -157.847108763972813, 21.300928918010595 ] } },
{ "type": "Feature", "properties": { "objectid": 267, "name": "Kinder Kids International Preschool", "address": "6660 Hawaii Kai Drive", "city": "Honolulu", "zip": 96825, "island_dist": "Oahu", "type": "Licensed Group Child Care (Preschools)", "source": "PATCH" }, "geometry": { "type": "Point", "coordinates": [ -157.708999084632154, 21.29384034104152 ] } },
{ "type": "Feature", "properties": { "objectid": 268, "name": "Sunshine Works Preschool", "address": "98-1277 Kaahumanu Street #116", "city": "Aiea", "zip": 96701, "island_dist": "Oahu", "type": "Licensed Group Child Care (Preschools)", "source": "PATCH" }, "geometry": { "type": "Point", "coordinates": [ -157.951943999646858, 21.390300000382506 ] } },
{ "type": "Feature", "properties": { "objectid": 269, "name": "The Cole Academy Queen's Court", "address": "800 Bethel Street", "city": "Honolulu", "zip": 96813, "island_dist": "Oahu", "type": "Licensed Group Child Care (Preschools)", "source": "PATCH" }, "geometry": { "type": "Point", "coordinates": [ -157.863896999750921, 21.309813000311195 ] } },
{ "type": "Feature", "properties": { "objectid": 270, "name": "Hauoli Haven Early Childhood Education Center ", "address": "500 Manono St., Suite 104", "city": "Hilo", "zip": 96720, "island_dist": "East Hawaii", "type": "Licensed Group Child Care (Preschools)", "source": "PATCH" }, "geometry": { "type": "Point", "coordinates": [ -155.070090216602608, 19.7155979163973 ] } },
{ "type": "Feature", "properties": { "objectid": 271, "name": "Iroquois Point Preschool", "address": "5111 Iroquois Ave.", "city": "Ewa Beach", "zip": 96706, "island_dist": "Oahu", "type": "Licensed Group Child Care (Preschools)", "source": "PATCH" }, "geometry": { "type": "Point", "coordinates": [ -157.97941549497412, 21.320364949117391 ] } },
{ "type": "Feature", "properties": { "objectid": 272, "name": "Unity School", "address": "3608 Diamond Head Circle", "city": "Honolulu", "zip": 96815, "island_dist": "Oahu", "type": "Licensed Group Child Care (Preschools)", "source": "PATCH" }, "geometry": { "type": "Point", "coordinates": [ -157.812805059435789, 21.268690940800273 ] } },
{ "type": "Feature", "properties": { "objectid": 273, "name": "St Anthony Preschool", "address": "1627-B Mill Street", "city": "Wailuku", "zip": 96793, "island_dist": "Maui", "type": "Licensed Group Child Care (Preschools)", "source": "PATCH" }, "geometry": { "type": "Point", "coordinates": [ -156.497094112857809, 20.893442509271065 ] } },
{ "type": "Feature", "properties": { "objectid": 274, "name": "Kapahulu Bible Church Preschool", "address": "3221 Makini Street", "city": "Honolulu", "zip": 96815, "island_dist": "Oahu", "type": "Licensed Group Child Care (Preschools)", "source": "PATCH" }, "geometry": { "type": "Point", "coordinates": [ -157.810666500415294, 21.270645000249267 ] } },
{ "type": "Feature", "properties": { "objectid": 275, "name": "Malamalama Waldorf School Kinderhale ", "address": "15-1834 Makuu Drive", "city": "Keaau", "zip": 96749, "island_dist": "East Hawaii", "type": "Licensed Group Child Care (Preschools)", "source": "PATCH" }, "geometry": { "type": "Point", "coordinates": [ -154.969272538745287, 19.556860066422427 ] } },
{ "type": "Feature", "properties": { "objectid": 276, "name": "Stepping Stones Academy Preschool", "address": "98-761 Oihana Place, Ste. 1", "city": "Aiea", "zip": 96701, "island_dist": "Oahu", "type": "Licensed Group Child Care (Preschools)", "source": "PATCH" }, "geometry": { "type": "Point", "coordinates": [ -157.952580541917257, 21.391762706413566 ] } },
{ "type": "Feature", "properties": { "objectid": 277, "name": "The Toddler Program", "address": "3509 Pahoa Avenue", "city": "Honolulu", "zip": 96816, "island_dist": "Oahu", "type": "Licensed Group Child Care (Preschools)", "source": "PATCH" }, "geometry": { "type": "Point", "coordinates": [ -157.802559741248871, 21.280429247749645 ] } },
{ "type": "Feature", "properties": { "objectid": 278, "name": "Mililani Presbyterian Preschool", "address": "95-410 Kuahelani Avenue", "city": "Mililani", "zip": 96789, "island_dist": "Oahu", "type": "Licensed Group Child Care (Preschools)", "source": "PATCH" }, "geometry": { "type": "Point", "coordinates": [ -158.014480499901225, 21.459293999721879 ] } },
{ "type": "Feature", "properties": { "objectid": 279, "name": "University of Hawaii at Manoa Childrens Center", "address": "2320 Dole Street", "city": "Honolulu", "zip": 96822, "island_dist": "Oahu", "type": "Licensed Group Child Care (Preschools)", "source": "PATCH" }, "geometry": { "type": "Point", "coordinates": [ -157.822749519235799, 21.296905263244128 ] } },
{ "type": "Feature", "properties": { "objectid": 280, "name": "University of Hawaii at Manoa Children's Center Noelani", "address": "2655 Woodlawn Drive, Room Po 2", "city": "Honolulu", "zip": 96822, "island_dist": "Oahu", "type": "Licensed Group Child Care (Preschools)", "source": "PATCH" }, "geometry": { "type": "Point", "coordinates": [ -157.811584557802689, 21.306560306741392 ] } },
{ "type": "Feature", "properties": { "objectid": 281, "name": "University of Hawaii at Manoa Children's Center Kuhio", "address": "2759 South King St, #c1", "city": "Honolulu", "zip": 96826, "island_dist": "Oahu", "type": "Licensed Group Child Care (Preschools)", "source": "PATCH" }, "geometry": { "type": "Point", "coordinates": [ -157.819778999610918, 21.289212000133428 ] } },
{ "type": "Feature", "properties": { "objectid": 282, "name": "Windward Nazarene Academy Preschool", "address": "45-232 Puaae Road", "city": "Kaneohe", "zip": 96744, "island_dist": "Oahu", "type": "Licensed Group Child Care (Preschools)", "source": "PATCH" }, "geometry": { "type": "Point", "coordinates": [ -157.789286921101564, 21.404120795858741 ] } },
{ "type": "Feature", "properties": { "objectid": 283, "name": "Sounds Of Success Preschool And Learning Center", "address": "98-029 Hekaha St, Bldg 5, Ste 44", "city": "Aiea", "zip": 96701, "island_dist": "Oahu", "type": "Licensed Group Child Care (Preschools)", "source": "PATCH" }, "geometry": { "type": "Point", "coordinates": [ -157.95142433161061, 21.384782370062254 ] } },
{ "type": "Feature", "properties": { "objectid": 284, "name": "KCAA Atherton Preschool", "address": "410 Oneawa Street", "city": "Kailua", "zip": 96734, "island_dist": "Oahu", "type": "Licensed Group Child Care (Preschools)", "source": "PATCH" }, "geometry": { "type": "Point", "coordinates": [ -157.747720499751296, 21.400191000237896 ] } },
{ "type": "Feature", "properties": { "objectid": 285, "name": "KCAA Muriel Preschool", "address": "1045 Kawaiahao Street", "city": "Honolulu", "zip": 96814, "island_dist": "Oahu", "type": "Licensed Group Child Care (Preschools)", "source": "PATCH" }, "geometry": { "type": "Point", "coordinates": [ -157.852055793271859, 21.295878220123043 ] } },
{ "type": "Feature", "properties": { "objectid": 286, "name": "Stepping Stones Academy - Waipahu", "address": "94-905 Waipahu Street #200", "city": "Waipahu", "zip": 96797, "island_dist": "Oahu", "type": "Licensed Group Child Care (Preschools)", "source": "PATCH" }, "geometry": { "type": "Point", "coordinates": [ -158.006025000441213, 21.386258999962738 ] } },
{ "type": "Feature", "properties": { "objectid": 287, "name": "Little Hoku Montessori Academy, LLC", "address": "220 Moi Place", "city": "Kihei", "zip": 96753, "island_dist": "Maui", "type": "Licensed Group Child Care (Preschools)", "source": "PATCH" }, "geometry": { "type": "Point", "coordinates": [ -156.453808000717061, 20.778638483590115 ] } },
{ "type": "Feature", "properties": { "objectid": 288, "name": "Rainbow School Kaneohe", "address": "45-211 Waikalua Road", "city": "Kaneohe", "zip": 96744, "island_dist": "Oahu", "type": "Licensed Group Child Care (Preschools)", "source": "PATCH" }, "geometry": { "type": "Point", "coordinates": [ -157.795835062930649, 21.413729251020069 ] } },
{ "type": "Feature", "properties": { "objectid": 289, "name": "L. Robert Allen Montessori Center", "address": "3140 Waialae Avenue, Bldg. 20", "city": "Honolulu", "zip": 96816, "island_dist": "Oahu", "type": "Licensed Group Child Care (Preschools)", "source": "PATCH" }, "geometry": { "type": "Point", "coordinates": [ -157.807421999656867, 21.289878000444016 ] } },
{ "type": "Feature", "properties": { "objectid": 290, "name": "Keiki O Ka Aina Family Learning Center Ka Pua Preschool", "address": "87-790 Kulauku St.", "city": "Waianae", "zip": 96792, "island_dist": "Oahu", "type": "Licensed Group Child Care (Preschools)", "source": "PATCH" }, "geometry": { "type": "Point", "coordinates": [ -158.171755012999114, 21.409419985107338 ] } },
{ "type": "Feature", "properties": { "objectid": 291, "name": "Aiea Hongwanji Preschool", "address": "99-186 Puakala Street", "city": "Aiea", "zip": 96701, "island_dist": "Oahu", "type": "Licensed Group Child Care (Preschools)", "source": "PATCH" }, "geometry": { "type": "Point", "coordinates": [ -157.929009914227834, 21.377831341902773 ] } },
{ "type": "Feature", "properties": { "objectid": 292, "name": "Alani Childrens Center", "address": "4303 Diamond Head Road", "city": "Honolulu", "zip": 96816, "island_dist": "Oahu", "type": "Licensed Group Child Care (Preschools)", "source": "PATCH" }, "geometry": { "type": "Point", "coordinates": [ -157.800302999597875, 21.270717000446414 ] } },
{ "type": "Feature", "properties": { "objectid": 293, "name": "Koloa Head Start ", "address": "3223 Poipu Road", "city": "Koloa", "zip": 96756, "island_dist": "Kauai", "type": "Licensed Group Child Care (Preschools)", "source": "PATCH" }, "geometry": { "type": "Point", "coordinates": [ -159.466117361115806, 21.898985420352616 ] } },
{ "type": "Feature", "properties": { "objectid": 294, "name": "Kekaha Head Start ", "address": "8563 Elepaio Road", "city": "Kekaha", "zip": 96752, "island_dist": "Kauai", "type": "Licensed Group Child Care (Preschools)", "source": "PATCH" }, "geometry": { "type": "Point", "coordinates": [ -159.707055175809188, 21.963292269594493 ] } },
{ "type": "Feature", "properties": { "objectid": 295, "name": "Kapaa Head Start ", "address": "4886 Kawaihau Road", "city": "Kapaa", "zip": 96746, "island_dist": "Kauai", "type": "Licensed Group Child Care (Preschools)", "source": "PATCH" }, "geometry": { "type": "Point", "coordinates": [ -159.313892071885618, 22.088989013135805 ] } },
{ "type": "Feature", "properties": { "objectid": 296, "name": "St. Catherine Preschool", "address": "5021 Kawaihau Road", "city": "Kapaa", "zip": 96746, "island_dist": "Kauai", "type": "Licensed Group Child Care (Preschools)", "source": "PATCH" }, "geometry": { "type": "Point", "coordinates": [ -159.316702878254972, 22.092109966986143 ] } },
{ "type": "Feature", "properties": { "objectid": 297, "name": "A Caring Place Montessori Preschool", "address": "260 North Kainalu Drive", "city": "Kailua", "zip": 96734, "island_dist": "Oahu", "type": "Licensed Group Child Care (Preschools)", "source": "PATCH" }, "geometry": { "type": "Point", "coordinates": [ -157.742734606676038, 21.403062460094567 ] } },
{ "type": "Feature", "properties": { "objectid": 298, "name": "St. Theresa Early Learning Academy (S.T.E.L.A.)", "address": "8311 Kaumualii Hwy", "city": "Kekaha", "zip": 96752, "island_dist": "Kauai", "type": "Licensed Group Child Care (Preschools)", "source": "PATCH" }, "geometry": { "type": "Point", "coordinates": [ -159.711126350962672, 21.964559198119694 ] } },
{ "type": "Feature", "properties": { "objectid": 299, "name": "Love A Keiki Learning Center", "address": "1239 Olomea Street", "city": "Honolulu", "zip": 96817, "island_dist": "Oahu", "type": "Licensed Group Child Care (Preschools)", "source": "PATCH" }, "geometry": { "type": "Point", "coordinates": [ -157.869083921771818, 21.328304449352835 ] } },
{ "type": "Feature", "properties": { "objectid": 300, "name": "Faith, Hope & Love Child Care & Learning Center", "address": "94-133 Pahu Street", "city": "Waipahu", "zip": 96797, "island_dist": "Oahu", "type": "Licensed Group Child Care (Preschools)", "source": "PATCH" }, "geometry": { "type": "Point", "coordinates": [ -158.007144357036054, 21.382854422836765 ] } },
{ "type": "Feature", "properties": { "objectid": 301, "name": "Sonshine Preschool & Day Care Center", "address": "81-6614 Mamalahoa Highway", "city": "Kealakekua", "zip": 96750, "island_dist": "West Hawaii", "type": "Licensed Group Child Care (Preschools)", "source": "PATCH" }, "geometry": { "type": "Point", "coordinates": [ -155.920540015703892, 19.514957050923297 ] } },
{ "type": "Feature", "properties": { "objectid": 302, "name": "Friendship Christian Schools at Youth Center Campus", "address": "91-1207 Renton Road", "city": "Ewa Beach", "zip": 96706, "island_dist": "Oahu", "type": "Licensed Group Child Care (Preschools)", "source": "PATCH" }, "geometry": { "type": "Point", "coordinates": [ -158.035828500424969, 21.340673999644761 ] } },
{ "type": "Feature", "properties": { "objectid": 303, "name": "Aloha School Early Learning Center", "address": "5-5344 Kuhio Highway", "city": "Hanalei", "zip": 96714, "island_dist": "Kauai", "type": "Licensed Group Child Care (Preschools)", "source": "PATCH" }, "geometry": { "type": "Point", "coordinates": [ -159.500617742839523, 22.201700312095365 ] } },
{ "type": "Feature", "properties": { "objectid": 304, "name": "Island School Na Pua Keiki", "address": "3-1875 Kaumualii Hwy", "city": "Lihue", "zip": 96766, "island_dist": "Kauai", "type": "Licensed Group Child Care (Preschools)", "source": "PATCH" }, "geometry": { "type": "Point", "coordinates": [ -159.396300548161804, 21.966821474828304 ] } },
{ "type": "Feature", "properties": { "objectid": 305, "name": "Kamehameha Schools Preschool - Kaumakani", "address": "2201 Kaumakani Road", "city": "Kaumakani", "zip": 96747, "island_dist": "Kauai", "type": "Licensed Group Child Care (Preschools)", "source": "PATCH" }, "geometry": { "type": "Point", "coordinates": [ -159.620376166688715, 21.918505772319108 ] } },
{ "type": "Feature", "properties": { "objectid": 306, "name": "Lihue Hongwanji Preschool", "address": "3-3560 B Kuhio Hwy", "city": "Lihue", "zip": 96766, "island_dist": "Kauai", "type": "Licensed Group Child Care (Preschools)", "source": "PATCH" }, "geometry": { "type": "Point", "coordinates": [ -159.366185726953489, 21.990344581270996 ] } },
{ "type": "Feature", "properties": { "objectid": 307, "name": "Kauai Christian Academy Preschool", "address": "4000 Kilauea Road", "city": "Kilauea", "zip": 96754, "island_dist": "Kauai", "type": "Licensed Group Child Care (Preschools)", "source": "PATCH" }, "geometry": { "type": "Point", "coordinates": [ -159.403815856294699, 22.217295416935919 ] } },
{ "type": "Feature", "properties": { "objectid": 308, "name": "Kahili Adventist Preschool", "address": "4-1132 Kuhio Highway", "city": "Kapaa", "zip": 96746, "island_dist": "Kauai", "type": "Licensed Group Child Care (Preschools)", "source": "PATCH" }, "geometry": { "type": "Point", "coordinates": [ -159.319420366741014, 22.069727895031154 ] } },
{ "type": "Feature", "properties": { "objectid": 309, "name": "Haloalaunuiakea Early Learning Center", "address": "4402 Waialo Road", "city": "Eleele", "zip": 96705, "island_dist": "Kauai", "type": "Licensed Group Child Care (Preschools)", "source": "PATCH" }, "geometry": { "type": "Point", "coordinates": [ -159.585867945284463, 21.902754700086984 ] } },
{ "type": "Feature", "properties": { "objectid": 310, "name": "KCF Keiki Preschool", "address": "2731 Ala Kinoiki Street", "city": "Koloa", "zip": 96756, "island_dist": "Kauai", "type": "Licensed Group Child Care (Preschools)", "source": "PATCH" }, "geometry": { "type": "Point", "coordinates": [ -159.450159113322911, 21.887410903854207 ] } },
{ "type": "Feature", "properties": { "objectid": 311, "name": "OCA Preschool", "address": "4212 Rice Street", "city": "Lihue", "zip": 96766, "island_dist": "Kauai", "type": "Licensed Group Child Care (Preschools)", "source": "PATCH" }, "geometry": { "type": "Point", "coordinates": [ -159.363502492382906, 21.971399226847506 ] } },
{ "type": "Feature", "properties": { "objectid": 312, "name": "Na Maka Kindergarten Prep School Honolulu", "address": "1254 South King Street", "city": "Honolulu", "zip": 96814, "island_dist": "Oahu", "type": "Licensed Group Child Care (Preschools)", "source": "PATCH" }, "geometry": { "type": "Point", "coordinates": [ -157.842485999856052, 21.299489999920063 ] } },
{ "type": "Feature", "properties": { "objectid": 313, "name": "Saint Theresa School", "address": "712 N School St", "city": "Honolulu", "zip": 96817, "island_dist": "Oahu", "type": "Licensed Group Child Care (Preschools)", "source": "PATCH" }, "geometry": { "type": "Point", "coordinates": [ -157.860612000122785, 21.324653999677519 ] } },
{ "type": "Feature", "properties": { "objectid": 314, "name": "A Room To Grow Preschool Too", "address": "3116 Akahi Street", "city": "Lihue", "zip": 96766, "island_dist": "Kauai", "type": "Licensed Group Child Care (Preschools)", "source": "PATCH" }, "geometry": { "type": "Point", "coordinates": [ -159.367463435055811, 21.977438689244099 ] } },
{ "type": "Feature", "properties": { "objectid": 315, "name": "A Room To Grow Preschool One", "address": "3195 Elua Street", "city": "Lihue", "zip": 96766, "island_dist": "Kauai", "type": "Licensed Group Child Care (Preschools)", "source": "PATCH" }, "geometry": { "type": "Point", "coordinates": [ -159.366009612001704, 21.979386302788161 ] } },
{ "type": "Feature", "properties": { "objectid": 316, "name": "The Early Education Center", "address": "1130 Alapai Street", "city": "Honolulu", "zip": 96813, "island_dist": "Oahu", "type": "Licensed Group Child Care (Preschools)", "source": "PATCH" }, "geometry": { "type": "Point", "coordinates": [ -157.853673817520672, 21.304160931919586 ] } },
{ "type": "Feature", "properties": { "objectid": 317, "name": "YWCA of Hawaii Island Developmental Preschool ", "address": "145 Ululani Street", "city": "Hilo", "zip": 96720, "island_dist": "East Hawaii", "type": "Licensed Group Child Care (Preschools)", "source": "PATCH" }, "geometry": { "type": "Point", "coordinates": [ -155.089125022633851, 19.723352740123023 ] } },
{ "type": "Feature", "properties": { "objectid": 318, "name": "Lihue Head Start", "address": "3343 Kanakolu Street", "city": "Lihue", "zip": 96766, "island_dist": "Kauai", "type": "Licensed Group Child Care (Preschools)", "source": "PATCH" }, "geometry": { "type": "Point", "coordinates": [ -159.370748047066485, 21.984843373131316 ] } },
{ "type": "Feature", "properties": { "objectid": 319, "name": "Kamehameha Preschool - Keaau ", "address": "15-1906 20th Avenue", "city": "Keaau", "zip": 96749, "island_dist": "East Hawaii", "type": "Licensed Group Child Care (Preschools)", "source": "PATCH" }, "geometry": { "type": "Point", "coordinates": [ -154.964265922897908, 19.568999285984912 ] } },
{ "type": "Feature", "properties": { "objectid": 320, "name": "Kamehameha Preschool - Pahoa ", "address": "15-3022 Puna Road", "city": "Pahoa", "zip": 96778, "island_dist": "East Hawaii", "type": "Licensed Group Child Care (Preschools)", "source": "PATCH" }, "geometry": { "type": "Point", "coordinates": [ -154.905081928018831, 19.512668424727892 ] } },
{ "type": "Feature", "properties": { "objectid": 321, "name": "PACT Head Start (Puueo)", "address": "145 Wainaku Street", "city": "Hilo", "zip": 96720, "island_dist": "East Hawaii", "type": "Licensed Group Child Care (Preschools)", "source": "PATCH" }, "geometry": { "type": "Point", "coordinates": [ -155.090884912351243, 19.74476912463086 ] } },
{ "type": "Feature", "properties": { "objectid": 322, "name": "PACT Head Start Hawaiian Beaches", "address": "15-360 North Puni Makai Street", "city": "Pahoa", "zip": 96778, "island_dist": "East Hawaii", "type": "Licensed Group Child Care (Preschools)", "source": "PATCH" }, "geometry": { "type": "Point", "coordinates": [ -154.902471528559403, 19.548166370909044 ] } },
{ "type": "Feature", "properties": { "objectid": 323, "name": "PACT Head Start Hilo Child Development Center ", "address": "2133 Waianuenue Avenue", "city": "Hilo", "zip": 96720, "island_dist": "East Hawaii", "type": "Licensed Group Child Care (Preschools)", "source": "PATCH" }, "geometry": { "type": "Point", "coordinates": [ -155.13823177475183, 19.714560654189803 ] } },
{ "type": "Feature", "properties": { "objectid": 324, "name": "PACT Head Start Kalanianaole Inclusion ", "address": "27-330 Old Mamalahoa Hwy", "city": "Papaikou", "zip": 96781, "island_dist": "East Hawaii", "type": "Licensed Group Child Care (Preschools)", "source": "PATCH" }, "geometry": { "type": "Point", "coordinates": [ -155.093156249104908, 19.779128674653514 ] } },
{ "type": "Feature", "properties": { "objectid": 325, "name": "PACT Head Start Keonepoko Pre-Plus Inclusion ", "address": "15-890 Kahakai Blvd", "city": "Pahoa", "zip": 96778, "island_dist": "East Hawaii", "type": "Licensed Group Child Care (Preschools)", "source": "PATCH" }, "geometry": { "type": "Point", "coordinates": [ -154.929108807706598, 19.526099065749161 ] } },
{ "type": "Feature", "properties": { "objectid": 326, "name": "PACT Head Start Mt. View Pre-Plus ", "address": "18-1235 Volcano Highway", "city": "Mountain View", "zip": 96771, "island_dist": "East Hawaii", "type": "Licensed Group Child Care (Preschools)", "source": "PATCH" }, "geometry": { "type": "Point", "coordinates": [ -155.102735007846064, 19.555093077365783 ] } },
{ "type": "Feature", "properties": { "objectid": 327, "name": "All Saints Preschool", "address": "4-1065 Kuhio Hwy", "city": "Kapaa", "zip": 96746, "island_dist": "Kauai", "type": "Licensed Group Child Care (Preschools)", "source": "PATCH" }, "geometry": { "type": "Point", "coordinates": [ -159.319428110880295, 22.067874917383168 ] } },
{ "type": "Feature", "properties": { "objectid": 328, "name": "Hilo Hongwanji Preschool ", "address": "398 Kilauea Avenue", "city": "Hilo", "zip": 96720, "island_dist": "East Hawaii", "type": "Licensed Group Child Care (Preschools)", "source": "PATCH" }, "geometry": { "type": "Point", "coordinates": [ -155.0828084620114, 19.720020924314824 ] } },
{ "type": "Feature", "properties": { "objectid": 329, "name": "Natural Bridges School", "address": "2414 Oka Street", "city": "Kilauea", "zip": 96754, "island_dist": "Kauai", "type": "Licensed Group Child Care (Preschools)", "source": "PATCH" }, "geometry": { "type": "Point", "coordinates": [ -159.406715273352518, 22.209983403128234 ] } },
{ "type": "Feature", "properties": { "objectid": 330, "name": "HCAP Head Start 442", "address": "85-555 B Farrington Hwy", "city": "Waianae", "zip": 96792, "island_dist": "Oahu", "type": "Licensed Group Child Care (Preschools)", "source": "PATCH" }, "geometry": { "type": "Point", "coordinates": [ -158.194124012954774, 21.452038148135745 ] } },
{ "type": "Feature", "properties": { "objectid": 331, "name": "HCAP Head Start Aiea Elementary I", "address": "99-370 Moanalua Road", "city": "Aiea", "zip": 96701, "island_dist": "Oahu", "type": "Licensed Group Child Care (Preschools)", "source": "PATCH" }, "geometry": { "type": "Point", "coordinates": [ -157.927945500184819, 21.375765000128393 ] } },
{ "type": "Feature", "properties": { "objectid": 332, "name": "HCAP Head Start Aiea Elementary Pre-plus", "address": "99-370 Moanalua Road", "city": "Aiea", "zip": 96701, "island_dist": "Oahu", "type": "Licensed Group Child Care (Preschools)", "source": "PATCH" }, "geometry": { "type": "Point", "coordinates": [ -157.927945500184819, 21.375765000128393 ] } },
{ "type": "Feature", "properties": { "objectid": 333, "name": "HCAP Head Start Ben Parker Elementary II", "address": "45-259 Waikalua Road A5", "city": "Kaneohe", "zip": 96744, "island_dist": "Oahu", "type": "Licensed Group Child Care (Preschools)", "source": "PATCH" }, "geometry": { "type": "Point", "coordinates": [ -157.798993028451292, 21.413528600319314 ] } },
{ "type": "Feature", "properties": { "objectid": 334, "name": "HCAP Head Start Benjamin Parker", "address": "45-259 Waikalua Road", "city": "Kaneohe", "zip": 96744, "island_dist": "Oahu", "type": "Licensed Group Child Care (Preschools)", "source": "PATCH" }, "geometry": { "type": "Point", "coordinates": [ -157.798993028451292, 21.413528600319314 ] } },
{ "type": "Feature", "properties": { "objectid": 335, "name": "HCAP Head Start Daniel K. Inouye Elementary", "address": "1 Waianae Ave & Ayers Ave, Rm G1", "city": "Wahiawa", "zip": 96786, "island_dist": "Oahu", "type": "Licensed Group Child Care (Preschools)", "source": "PATCH" }, "geometry": { "type": "Point", "coordinates": [ -158.058468000359795, 21.499100999911811 ] } },
{ "type": "Feature", "properties": { "objectid": 336, "name": "Enchanted Lake Head Start", "address": "770 Keolu Drive", "city": "Kailua", "zip": 96734, "island_dist": "Oahu", "type": "Licensed Group Child Care (Preschools)", "source": "PATCH" }, "geometry": { "type": "Point", "coordinates": [ -157.731526032623208, 21.384036739880919 ] } },
{ "type": "Feature", "properties": { "objectid": 337, "name": "HCAP Head Start Halawa", "address": "99-795 Iwaiwa Street", "city": "Aiea", "zip": 96701, "island_dist": "Oahu", "type": "Licensed Group Child Care (Preschools)", "source": "PATCH" }, "geometry": { "type": "Point", "coordinates": [ -157.916632499839125, 21.373667999847697 ] } },
{ "type": "Feature", "properties": { "objectid": 338, "name": "HCAP Head Start Hauula Elementary School", "address": "54-046 Kamehameha Highway", "city": "Hauula", "zip": 96717, "island_dist": "Oahu", "type": "Licensed Group Child Care (Preschools)", "source": "PATCH" }, "geometry": { "type": "Point", "coordinates": [ -157.907718000383966, 21.605769000427586 ] } },
{ "type": "Feature", "properties": { "objectid": 339, "name": "HCAP Head Start Heeia", "address": "46-202 Haiku Road", "city": "Kaneohe", "zip": 96744, "island_dist": "Oahu", "type": "Licensed Group Child Care (Preschools)", "source": "PATCH" }, "geometry": { "type": "Point", "coordinates": [ -157.809104455279225, 21.419201448348328 ] } },
{ "type": "Feature", "properties": { "objectid": 340, "name": "HCAP Head Start Ka Pua I & II", "address": "87-790 Kulauku Street", "city": "Waianae", "zip": 96792, "island_dist": "Oahu", "type": "Licensed Group Child Care (Preschools)", "source": "PATCH" }, "geometry": { "type": "Point", "coordinates": [ -158.171755012999114, 21.409419985107338 ] } },
{ "type": "Feature", "properties": { "objectid": 341, "name": "HCAP Head Start Kaala Elementary Pre-plus", "address": "130 California Avenue", "city": "Wahiawa", "zip": 96786, "island_dist": "Oahu", "type": "Licensed Group Child Care (Preschools)", "source": "PATCH" }, "geometry": { "type": "Point", "coordinates": [ -158.036876999615401, 21.494168999662474 ] } },
{ "type": "Feature", "properties": { "objectid": 342, "name": "Kaewai Head Start", "address": "1929 Kamehameha Road Iv", "city": "Honolulu", "zip": 96819, "island_dist": "Oahu", "type": "Licensed Group Child Care (Preschools)", "source": "PATCH" }, "geometry": { "type": "Point", "coordinates": [ -157.868936999576732, 21.344894999772471 ] } },
{ "type": "Feature", "properties": { "objectid": 343, "name": "HCAP Head Start Kahaluu", "address": "47-280 Waihee Road", "city": "Kaneohe", "zip": 96744, "island_dist": "Oahu", "type": "Licensed Group Child Care (Preschools)", "source": "PATCH" }, "geometry": { "type": "Point", "coordinates": [ -157.845352893318818, 21.457741855133758 ] } },
{ "type": "Feature", "properties": { "objectid": 344, "name": "HCAP Head Start Kahikolu", "address": "85-296 Ala Hema Street", "city": "Waianae", "zip": 96792, "island_dist": "Oahu", "type": "Licensed Group Child Care (Preschools)", "source": "PATCH" }, "geometry": { "type": "Point", "coordinates": [ -158.191731464542585, 21.45411789883569 ] } },
{ "type": "Feature", "properties": { "objectid": 345, "name": "Kailua Elementary Pre-Plus Head Start", "address": "315 Kuulei Road", "city": "Kailua", "zip": 96734, "island_dist": "Oahu", "type": "Licensed Group Child Care (Preschools)", "source": "PATCH" }, "geometry": { "type": "Point", "coordinates": [ -157.741136117839545, 21.395967995203456 ] } },
{ "type": "Feature", "properties": { "objectid": 346, "name": "Kainalu Elementary Head Start", "address": "165 Kaiholu Street", "city": "Kailua", "zip": 96734, "island_dist": "Oahu", "type": "Licensed Group Child Care (Preschools)", "source": "PATCH" }, "geometry": { "type": "Point", "coordinates": [ -157.748133640363989, 21.413987342374142 ] } },
{ "type": "Feature", "properties": { "objectid": 347, "name": "Kaiulani I & II Head Start", "address": "783 North King Street", "city": "Honolulu", "zip": 96817, "island_dist": "Oahu", "type": "Licensed Group Child Care (Preschools)", "source": "PATCH" }, "geometry": { "type": "Point", "coordinates": [ -157.867169507683315, 21.32171983481452 ] } },
{ "type": "Feature", "properties": { "objectid": 348, "name": "Kalihi Kai Head Start HCAP", "address": "626 Mcneill St", "city": "Honolulu", "zip": 96817, "island_dist": "Oahu", "type": "Licensed Group Child Care (Preschools)", "source": "PATCH" }, "geometry": { "type": "Point", "coordinates": [ -157.878648000326791, 21.327272999732354 ] } },
{ "type": "Feature", "properties": { "objectid": 349, "name": "HCAP Head Start Kaneohe Elementary", "address": "45-495 Kamehameha Highway", "city": "Kaneohe", "zip": 96744, "island_dist": "Oahu", "type": "Licensed Group Child Care (Preschools)", "source": "PATCH" }, "geometry": { "type": "Point", "coordinates": [ -157.795650000254426, 21.395996999746323 ] } },
{ "type": "Feature", "properties": { "objectid": 350, "name": "HCAP Head Start Kapalama", "address": "1601 North School Street", "city": "Honolulu", "zip": 96817, "island_dist": "Oahu", "type": "Licensed Group Child Care (Preschools)", "source": "PATCH" }, "geometry": { "type": "Point", "coordinates": [ -157.868707877918752, 21.335074464375985 ] } },
{ "type": "Feature", "properties": { "objectid": 351, "name": "HCAP Head Start Keiki Country I", "address": "87-412 Kaukama Road", "city": "Waianae", "zip": 96792, "island_dist": "Oahu", "type": "Licensed Group Child Care (Preschools)", "source": "PATCH" }, "geometry": { "type": "Point", "coordinates": [ -158.166792000039976, 21.406292999622199 ] } },
{ "type": "Feature", "properties": { "objectid": 352, "name": "HCAP Head Start Keiki Country II", "address": "87-412 Kaukama Road", "city": "Waianae", "zip": 96792, "island_dist": "Oahu", "type": "Licensed Group Child Care (Preschools)", "source": "PATCH" }, "geometry": { "type": "Point", "coordinates": [ -158.166792000039976, 21.406292999622199 ] } },
{ "type": "Feature", "properties": { "objectid": 353, "name": "HCAP Head Start Kipapa Elementary", "address": "95-076 Kipapa Drive", "city": "Mililani", "zip": 96789, "island_dist": "Oahu", "type": "Licensed Group Child Care (Preschools)", "source": "PATCH" }, "geometry": { "type": "Point", "coordinates": [ -158.011938000313876, 21.460842000324917 ] } },
{ "type": "Feature", "properties": { "objectid": 354, "name": "HCAP Head Start KMCBH", "address": "257 Reed Road #3", "city": "Kailua", "zip": 96734, "island_dist": "Oahu", "type": "Licensed Group Child Care (Preschools)", "source": "PATCH" }, "geometry": { "type": "Point", "coordinates": [ -157.758715979664544, 21.450226121586198 ] } },
{ "type": "Feature", "properties": { "objectid": 355, "name": "HCAP Head Start Kunia", "address": "92-1750 Kunia Drive", "city": "Kunia", "zip": 96759, "island_dist": "Oahu", "type": "Licensed Group Child Care (Preschools)", "source": "PATCH" }, "geometry": { "type": "Point", "coordinates": [ -158.059144470134527, 21.456684110817644 ] } },
{ "type": "Feature", "properties": { "objectid": 356, "name": "HCAP Head Start Kunia III", "address": "92-1750 Kunia Drive", "city": "Kunia", "zip": 96759, "island_dist": "Oahu", "type": "Licensed Group Child Care (Preschools)", "source": "PATCH" }, "geometry": { "type": "Point", "coordinates": [ -158.059144470134527, 21.456684110817644 ] } },
{ "type": "Feature", "properties": { "objectid": 357, "name": "HCAP Head Start Laie Elementary", "address": "55-109 Kulanui St", "city": "Laie", "zip": 96762, "island_dist": "Oahu", "type": "Licensed Group Child Care (Preschools)", "source": "PATCH" }, "geometry": { "type": "Point", "coordinates": [ -157.925862000264715, 21.649158000032678 ] } },
{ "type": "Feature", "properties": { "objectid": 358, "name": "HCAP Head Start Makaha Elementary", "address": "84-200 Ala Naauao Place", "city": "Waianae", "zip": 96792, "island_dist": "Oahu", "type": "Licensed Group Child Care (Preschools)", "source": "PATCH" }, "geometry": { "type": "Point", "coordinates": [ -158.212462970411025, 21.469286382559986 ] } },
{ "type": "Feature", "properties": { "objectid": 359, "name": "HCAP Head Start Maunawili Elementary", "address": "1465 Ulupi'i St", "city": "Kailua", "zip": 96734, "island_dist": "Oahu", "type": "Licensed Group Child Care (Preschools)", "source": "PATCH" }, "geometry": { "type": "Point", "coordinates": [ -157.752201168896278, 21.377725236237662 ] } },
{ "type": "Feature", "properties": { "objectid": 360, "name": "HCAP Head Start Nanakuli I & II", "address": "89-195 Farrington Hwy", "city": "Waianae", "zip": 96792, "island_dist": "Oahu", "type": "Licensed Group Child Care (Preschools)", "source": "PATCH" }, "geometry": { "type": "Point", "coordinates": [ -158.144482965674399, 21.380523510308272 ] } },
{ "type": "Feature", "properties": { "objectid": 361, "name": "HCAP Head Start Pope", "address": "41-133 Huli St", "city": "Waimanalo", "zip": 96795, "island_dist": "Oahu", "type": "Licensed Group Child Care (Preschools)", "source": "PATCH" }, "geometry": { "type": "Point", "coordinates": [ -157.693828903014946, 21.327880700789375 ] } },
{ "type": "Feature", "properties": { "objectid": 362, "name": "ABC Fun Preschool ", "address": "97-a Olona Street #101", "city": "Hilo", "zip": 96720, "island_dist": "East Hawaii", "type": "Licensed Group Child Care (Preschools)", "source": "PATCH" }, "geometry": { "type": "Point", "coordinates": [ -155.076323925703178, 19.703942200245233 ] } },
{ "type": "Feature", "properties": { "objectid": 363, "name": "HCAP Head Start Puohala Elementary", "address": "45-233 Kulauli Street", "city": "Kaneohe", "zip": 96744, "island_dist": "Oahu", "type": "Licensed Group Child Care (Preschools)", "source": "PATCH" }, "geometry": { "type": "Point", "coordinates": [ -157.789896814134522, 21.40938230237311 ] } },
{ "type": "Feature", "properties": { "objectid": 364, "name": "HCAP Head Start Puuhale Elementary", "address": "345 Puuhale Road", "city": "Honolulu", "zip": 96819, "island_dist": "Oahu", "type": "Licensed Group Child Care (Preschools)", "source": "PATCH" }, "geometry": { "type": "Point", "coordinates": [ -157.884516000437685, 21.327345000298561 ] } },
{ "type": "Feature", "properties": { "objectid": 365, "name": "HCAP Head Start Salt Lake Elementary Pre-plus", "address": "1131 Ala Lilikoi St", "city": "Honolulu", "zip": 96818, "island_dist": "Oahu", "type": "Licensed Group Child Care (Preschools)", "source": "PATCH" }, "geometry": { "type": "Point", "coordinates": [ -157.912395260756739, 21.350874591300769 ] } },
{ "type": "Feature", "properties": { "objectid": 366, "name": "HCAP Head Start Ulu Ke Kukui I & II", "address": "87-576 Kulaaupuni Street", "city": "Waianae", "zip": 96792, "island_dist": "Oahu", "type": "Licensed Group Child Care (Preschools)", "source": "PATCH" }, "geometry": { "type": "Point", "coordinates": [ -158.170436999542289, 21.412737000029519 ] } },
{ "type": "Feature", "properties": { "objectid": 367, "name": "HCAP Head Start Wahiawa UMC 1", "address": "1445 California Ave.", "city": "Wahiawa", "zip": 96786, "island_dist": "Oahu", "type": "Licensed Group Child Care (Preschools)", "source": "PATCH" }, "geometry": { "type": "Point", "coordinates": [ -158.014340999974479, 21.502178999557081 ] } },
{ "type": "Feature", "properties": { "objectid": 368, "name": "HCAP Head Start Wahiawa Elementary Pre-plus", "address": "1402 Glen Ave", "city": "Wahiawa", "zip": 96786, "island_dist": "Oahu", "type": "Licensed Group Child Care (Preschools)", "source": "PATCH" }, "geometry": { "type": "Point", "coordinates": [ -158.01786849458523, 21.504139485772157 ] } },
{ "type": "Feature", "properties": { "objectid": 369, "name": "HCAP Head Start Waimanalo Elementary Pre-plus", "address": "41-1330 Kalanianaole Hwy", "city": "Waimanalo", "zip": 96795, "island_dist": "Oahu", "type": "Licensed Group Child Care (Preschools)", "source": "PATCH" }, "geometry": { "type": "Point", "coordinates": [ -157.714985203570791, 21.346900406749739 ] } },
{ "type": "Feature", "properties": { "objectid": 370, "name": "St Johns Catholic Preschool", "address": "95-370 Kuahelani Avenue", "city": "Mililani", "zip": 96789, "island_dist": "Oahu", "type": "Licensed Group Child Care (Preschools)", "source": "PATCH" }, "geometry": { "type": "Point", "coordinates": [ -158.014349903638646, 21.457449712553462 ] } },
{ "type": "Feature", "properties": { "objectid": 371, "name": "Calvary By The Sea School", "address": "5339 Kalanianaole Highway", "city": "Honolulu", "zip": 96821, "island_dist": "Oahu", "type": "Licensed Group Child Care (Preschools)", "source": "PATCH" }, "geometry": { "type": "Point", "coordinates": [ -157.749705764182835, 21.2775640066032 ] } },
{ "type": "Feature", "properties": { "objectid": 372, "name": "The Koloa Early School", "address": "5521 Koloa Rd.", "city": "Koloa", "zip": 96756, "island_dist": "Kauai", "type": "Licensed Group Child Care (Preschools)", "source": "PATCH" }, "geometry": { "type": "Point", "coordinates": [ -159.463210215208051, 21.905292665175157 ] } },
{ "type": "Feature", "properties": { "objectid": 373, "name": "The Childrens House Preschool", "address": "1840 Komo Mai Drive", "city": "Pearl City", "zip": 96782, "island_dist": "Oahu", "type": "Licensed Group Child Care (Preschools)", "source": "PATCH" }, "geometry": { "type": "Point", "coordinates": [ -157.961940551254997, 21.415080067690436 ] } },
{ "type": "Feature", "properties": { "objectid": 374, "name": "Aloha Keiki Preschool ", "address": "17-4021 Kuaaina Road ", "city": "Keaau", "zip": 96749, "island_dist": "East Hawaii", "type": "Licensed Group Child Care (Preschools)", "source": "PATCH" }, "geometry": { "type": "Point", "coordinates": [ -155.055089445811547, 19.601074165257405 ] } },
{ "type": "Feature", "properties": { "objectid": 375, "name": "Hawaii Kai Church Early Learning Center", "address": "265 Lunalilo Home Road", "city": "Honolulu", "zip": 96825, "island_dist": "Oahu", "type": "Licensed Group Child Care (Preschools)", "source": "PATCH" }, "geometry": { "type": "Point", "coordinates": [ -157.702860000110945, 21.277916999656494 ] } },
{ "type": "Feature", "properties": { "objectid": 376, "name": "Malamapoki`i Early Childhood Education Program", "address": "64-1043 Hiiaka Street; Bldg. B", "city": "Kamuela", "zip": 96743, "island_dist": "West Hawaii", "type": "Licensed Group Child Care (Preschools)", "source": "PATCH" }, "geometry": { "type": "Point", "coordinates": [ -155.656075833926678, 20.016174118365861 ] } },
{ "type": "Feature", "properties": { "objectid": 377, "name": "Waialae Baptist Preschool", "address": "1047 21st Avenue", "city": "Honolulu", "zip": 96816, "island_dist": "Oahu", "type": "Licensed Group Child Care (Preschools)", "source": "PATCH" }, "geometry": { "type": "Point", "coordinates": [ -157.790754944928977, 21.276043702099106 ] } },
{ "type": "Feature", "properties": { "objectid": 378, "name": "Seagull School Of Kailua", "address": "1300 Kailua Road", "city": "Kailua", "zip": 96734, "island_dist": "Oahu", "type": "Licensed Group Child Care (Preschools)", "source": "PATCH" }, "geometry": { "type": "Point", "coordinates": [ -157.755094336838198, 21.382068466230365 ] } },
{ "type": "Feature", "properties": { "objectid": 379, "name": "PACT KPT Head Start I", "address": "1485 Linapuni Street", "city": "Honolulu", "zip": 96819, "island_dist": "Oahu", "type": "Licensed Group Child Care (Preschools)", "source": "PATCH" }, "geometry": { "type": "Point", "coordinates": [ -157.876637186746706, 21.338136965175121 ] } },
{ "type": "Feature", "properties": { "objectid": 380, "name": "PACT Fern Preplus Head Start ", "address": "1121 Middle Street", "city": "Honolulu", "zip": 96819, "island_dist": "Oahu", "type": "Licensed Group Child Care (Preschools)", "source": "PATCH" }, "geometry": { "type": "Point", "coordinates": [ -157.882017041160651, 21.339194618569522 ] } },
{ "type": "Feature", "properties": { "objectid": 381, "name": "PACT Kalihi Elementary Head Start A Licensed DP", "address": "2471 Kula Kolea Drive, # A15, A16", "city": "Honolulu", "zip": 96819, "island_dist": "Oahu", "type": "Licensed Group Child Care (Preschools)", "source": "PATCH" }, "geometry": { "type": "Point", "coordinates": [ -157.860936000157636, 21.352860000153989 ] } },
{ "type": "Feature", "properties": { "objectid": 382, "name": "PACT Linapuni Head Start", "address": "1434 Linapuni Street", "city": "Honolulu", "zip": 96819, "island_dist": "Oahu", "type": "Licensed Group Child Care (Preschools)", "source": "PATCH" }, "geometry": { "type": "Point", "coordinates": [ -157.877863264292785, 21.338747695172422 ] } },
{ "type": "Feature", "properties": { "objectid": 383, "name": "PACT Kahauiki Village Head Start", "address": "2625 North Nimitz Highway", "city": "Honolulu", "zip": 96819, "island_dist": "Oahu", "type": "Licensed Group Child Care (Preschools)", "source": "PATCH" }, "geometry": { "type": "Point", "coordinates": [ -157.891439637916221, 21.332885382147836 ] } },
{ "type": "Feature", "properties": { "objectid": 384, "name": "Holy Nativity School", "address": "5286 Kalanianaole Highway", "city": "Honolulu", "zip": 96821, "island_dist": "Oahu", "type": "Licensed Group Child Care (Preschools)", "source": "PATCH" }, "geometry": { "type": "Point", "coordinates": [ -157.752026999957224, 21.27860100015894 ] } },
{ "type": "Feature", "properties": { "objectid": 385, "name": "Kamehameha Schools- Kohala Preschool", "address": "55-1999 Kohala Mountain Road", "city": "Hawi", "zip": 96719, "island_dist": "West Hawaii", "type": "Licensed Group Child Care (Preschools)", "source": "PATCH" }, "geometry": { "type": "Point", "coordinates": [ -155.83620628513026, 20.207301207863953 ] } },
{ "type": "Feature", "properties": { "objectid": 386, "name": "Kamehameha Schools- Waimea Preschool", "address": "64-780 Mamalahoa Highway", "city": "Kamuela", "zip": 96743, "island_dist": "West Hawaii", "type": "Licensed Group Child Care (Preschools)", "source": "PATCH" }, "geometry": { "type": "Point", "coordinates": [ -155.641957956835057, 20.029684586147777 ] } },
{ "type": "Feature", "properties": { "objectid": 387, "name": "Carden Academy Of Maui", "address": "55 Makaena Place", "city": "Pukalani", "zip": 96768, "island_dist": "Maui", "type": "Licensed Group Child Care (Preschools)", "source": "PATCH" }, "geometry": { "type": "Point", "coordinates": [ -156.330952177852225, 20.827327110030453 ] } },
{ "type": "Feature", "properties": { "objectid": 388, "name": "Punana Leo O Waianae", "address": "87-790 Kulauku St, Pod A, Classroom 2", "city": "Waianae", "zip": 96792, "island_dist": "Oahu", "type": "Licensed Group Child Care (Preschools)", "source": "PATCH" }, "geometry": { "type": "Point", "coordinates": [ -158.171755012999114, 21.409419985107338 ] } },
{ "type": "Feature", "properties": { "objectid": 389, "name": "Punana Leo O Ko'olau Poko", "address": "45-233 Kulauli St #C-5, C-6", "city": "Kaneohe", "zip": 96744, "island_dist": "Oahu", "type": "Licensed Group Child Care (Preschools)", "source": "PATCH" }, "geometry": { "type": "Point", "coordinates": [ -157.789896814134522, 21.40938230237311 ] } },
{ "type": "Feature", "properties": { "objectid": 390, "name": "Punana Leo O Manoa", "address": "2331 Seaview Ave", "city": "Honolulu", "zip": 96822, "island_dist": "Oahu", "type": "Licensed Group Child Care (Preschools)", "source": "PATCH" }, "geometry": { "type": "Point", "coordinates": [ -157.82180243886603, 21.300003127183288 ] } },
{ "type": "Feature", "properties": { "objectid": 391, "name": "Punana Leo O Kona", "address": "81-1004 Konawaena School Road", "city": "Kealakekua", "zip": 96750, "island_dist": "West Hawaii", "type": "Licensed Group Child Care (Preschools)", "source": "PATCH" }, "geometry": { "type": "Point", "coordinates": [ -155.919683674770397, 19.508415672666896 ] } },
{ "type": "Feature", "properties": { "objectid": 392, "name": "Punana Leo O Waimea", "address": "64-756 Mamalahoa Highway", "city": "Kamuela", "zip": 96743, "island_dist": "West Hawaii", "type": "Licensed Group Child Care (Preschools)", "source": "PATCH" }, "geometry": { "type": "Point", "coordinates": [ -155.640477123342777, 20.030117767242498 ] } },
{ "type": "Feature", "properties": { "objectid": 393, "name": "Punana Leo O Hilo ", "address": "16-120 Opukahaia Street", "city": "Keaau", "zip": 96749, "island_dist": "East Hawaii", "type": "Licensed Group Child Care (Preschools)", "source": "PATCH" }, "geometry": { "type": "Point", "coordinates": [ -155.028099569118154, 19.604814250933114 ] } },
{ "type": "Feature", "properties": { "objectid": 394, "name": "Punana Leo O Hana", "address": "5060 Uakea Road", "city": "Hana", "zip": 96713, "island_dist": "Maui", "type": "Licensed Group Child Care (Preschools)", "source": "PATCH" }, "geometry": { "type": "Point", "coordinates": [ -155.984444873344302, 20.753972430682843 ] } },
{ "type": "Feature", "properties": { "objectid": 395, "name": "Punana Leo O Maui", "address": "103 South High Street", "city": "Wailuku", "zip": 96793, "island_dist": "Maui", "type": "Licensed Group Child Care (Preschools)", "source": "PATCH" }, "geometry": { "type": "Point", "coordinates": [ -156.504749298144759, 20.885920226957321 ] } },
{ "type": "Feature", "properties": { "objectid": 396, "name": "Punana Leo O Lahaina", "address": "547 Wainee Street", "city": "Lahaina", "zip": 96761, "island_dist": "Maui", "type": "Licensed Group Child Care (Preschools)", "source": "PATCH" }, "geometry": { "type": "Point", "coordinates": [ -156.6734558085532, 20.870399143838299 ] } },
{ "type": "Feature", "properties": { "objectid": 397, "name": "Punana Leo O Molokai", "address": "2200 Farrington Avenue", "city": "Hoolehua", "zip": 96729, "island_dist": "Molokai", "type": "Licensed Group Child Care (Preschools)", "source": "PATCH" }, "geometry": { "type": "Point", "coordinates": [ -157.050699819456355, 21.163277380329141 ] } },
{ "type": "Feature", "properties": { "objectid": 398, "name": "Punana Leo O Kauai ", "address": "3-1821 Kaumualii Highway", "city": "Lihue", "zip": 96766, "island_dist": "Kauai", "type": "Licensed Group Child Care (Preschools)", "source": "PATCH" }, "geometry": { "type": "Point", "coordinates": [ -159.397879880646656, 21.966100035930182 ] } },
{ "type": "Feature", "properties": { "objectid": 399, "name": "Kamehameha Preschool - Piihonua ", "address": "1350 Waianuenue Ave", "city": "Hilo", "zip": 96720, "island_dist": "East Hawaii", "type": "Licensed Group Child Care (Preschools)", "source": "PATCH" }, "geometry": { "type": "Point", "coordinates": [ -155.116454248797538, 19.717143438557532 ] } },
{ "type": "Feature", "properties": { "objectid": 400, "name": "Kamehameha Preschool - Hilo ", "address": "300 W. Lanikaula Street", "city": "Hilo", "zip": 96720, "island_dist": "East Hawaii", "type": "Licensed Group Child Care (Preschools)", "source": "PATCH" }, "geometry": { "type": "Point", "coordinates": [ -155.080132652031239, 19.7041840660175 ] } },
{ "type": "Feature", "properties": { "objectid": 401, "name": "Kamehameha Preschool - Waianuenue ", "address": "374 Waianuenue Avenue", "city": "Hilo", "zip": 96720, "island_dist": "East Hawaii", "type": "Licensed Group Child Care (Preschools)", "source": "PATCH" }, "geometry": { "type": "Point", "coordinates": [ -155.091836484157909, 19.723554320766425 ] } },
{ "type": "Feature", "properties": { "objectid": 402, "name": "Kamehameha Preschool - Keaukaha ", "address": "162 Baker Avenue", "city": "Hilo", "zip": 96720, "island_dist": "East Hawaii", "type": "Licensed Group Child Care (Preschools)", "source": "PATCH" }, "geometry": { "type": "Point", "coordinates": [ -155.043621408374406, 19.727660045785175 ] } },
{ "type": "Feature", "properties": { "objectid": 403, "name": "Kamehameha Schools Preschool - Waimanalo", "address": "41-235 Ilauhole Street", "city": "Waimanalo", "zip": 96795, "island_dist": "Oahu", "type": "Licensed Group Child Care (Preschools)", "source": "PATCH" }, "geometry": { "type": "Point", "coordinates": [ -157.698375290963014, 21.330616495057026 ] } },
{ "type": "Feature", "properties": { "objectid": 404, "name": "Kamehameha Schools Preschool - Puu Kahea", "address": "85-179 Ala Hema Street", "city": "Waianae", "zip": 96792, "island_dist": "Oahu", "type": "Licensed Group Child Care (Preschools)", "source": "PATCH" }, "geometry": { "type": "Point", "coordinates": [ -158.188215997757084, 21.451242044242267 ] } },
{ "type": "Feature", "properties": { "objectid": 405, "name": "Kamehameha Schools Preschool - Haleiwa I & II", "address": "66-279 A Haleiwa Rd", "city": "Haleiwa", "zip": 96712, "island_dist": "Oahu", "type": "Licensed Group Child Care (Preschools)", "source": "PATCH" }, "geometry": { "type": "Point", "coordinates": [ -158.110316999697517, 21.590072999713392 ] } },
{ "type": "Feature", "properties": { "objectid": 406, "name": "Kamehameha Schools Preschool - Hoaliku Drake", "address": "87-115 Waiolu Street", "city": "Waianae", "zip": 96792, "island_dist": "Oahu", "type": "Licensed Group Child Care (Preschools)", "source": "PATCH" }, "geometry": { "type": "Point", "coordinates": [ -158.160200903280639, 21.397998562582163 ] } },
{ "type": "Feature", "properties": { "objectid": 407, "name": "Kamehameha Schools Preschool - Kahuku", "address": "56-117 Pualalea St #17", "city": "Kahuku", "zip": 96731, "island_dist": "Oahu", "type": "Licensed Group Child Care (Preschools)", "source": "PATCH" }, "geometry": { "type": "Point", "coordinates": [ -157.954238999904391, 21.676328999883147 ] } },
{ "type": "Feature", "properties": { "objectid": 408, "name": "Kamehameha Schools Preschool - Kalihi- Palama", "address": "1850 Makuakane Street", "city": "Honolulu", "zip": 96817, "island_dist": "Oahu", "type": "Licensed Group Child Care (Preschools)", "source": "PATCH" }, "geometry": { "type": "Point", "coordinates": [ -157.866282216611154, 21.339098982850967 ] } },
{ "type": "Feature", "properties": { "objectid": 409, "name": "Kamehameha Schools Preschool - Kahaluu", "address": "47-253 Waihee Rd", "city": "Kaneohe", "zip": 96744, "island_dist": "Oahu", "type": "Licensed Group Child Care (Preschools)", "source": "PATCH" }, "geometry": { "type": "Point", "coordinates": [ -157.844873781297878, 21.457862107448452 ] } },
{ "type": "Feature", "properties": { "objectid": 410, "name": "Kamehameha Schools Preschool - Nanakuli", "address": "89-101 Farrington Hwy.", "city": "Waianae", "zip": 96792, "island_dist": "Oahu", "type": "Licensed Group Child Care (Preschools)", "source": "PATCH" }, "geometry": { "type": "Point", "coordinates": [ -158.144482965674399, 21.380523510308272 ] } },
{ "type": "Feature", "properties": { "objectid": 411, "name": "Kamehameha Schools Preschool - Nanakuli II", "address": "89-101 Farrington Hwy", "city": "Waianae", "zip": 96792, "island_dist": "Oahu", "type": "Licensed Group Child Care (Preschools)", "source": "PATCH" }, "geometry": { "type": "Point", "coordinates": [ -158.144482965674399, 21.380523510308272 ] } },
{ "type": "Feature", "properties": { "objectid": 412, "name": "Kamehameha Schools Preschool - Heeia", "address": "46-430 Kahuhipa Street", "city": "Kaneohe", "zip": 96744, "island_dist": "Oahu", "type": "Licensed Group Child Care (Preschools)", "source": "PATCH" }, "geometry": { "type": "Point", "coordinates": [ -157.818298500402335, 21.410793000015861 ] } },
{ "type": "Feature", "properties": { "objectid": 413, "name": "Kamehameha Schools Preschool - Ma'ili", "address": "87-790 Kulauku St, Pod C-11 & C-12", "city": "Waianae", "zip": 96792, "island_dist": "Oahu", "type": "Licensed Group Child Care (Preschools)", "source": "PATCH" }, "geometry": { "type": "Point", "coordinates": [ -158.171755012999114, 21.409419985107338 ] } },
{ "type": "Feature", "properties": { "objectid": 414, "name": "Kamehameha Schools Preschool - Kapalama", "address": "1867 Kaikunane Loop", "city": "Honolulu", "zip": 96817, "island_dist": "Oahu", "type": "Licensed Group Child Care (Preschools)", "source": "PATCH" }, "geometry": { "type": "Point", "coordinates": [ -157.865787837684394, 21.338185460866324 ] } },
{ "type": "Feature", "properties": { "objectid": 415, "name": "Kamehameha Preschool - Hamakua ", "address": "43-1377 Hawaii Belt Road", "city": "Paauilo", "zip": 96776, "island_dist": "East Hawaii", "type": "Licensed Group Child Care (Preschools)", "source": "PATCH" }, "geometry": { "type": "Point", "coordinates": [ -155.369682264786121, 20.039920999441314 ] } },
{ "type": "Feature", "properties": { "objectid": 416, "name": "Ka Hana Pono Daycare", "address": "66-434 Kamehameha Hwy.", "city": "Haleiwa", "zip": 96712, "island_dist": "Oahu", "type": "Licensed Group Child Care (Preschools)", "source": "PATCH" }, "geometry": { "type": "Point", "coordinates": [ -158.104769754611283, 21.581953617697245 ] } },
{ "type": "Feature", "properties": { "objectid": 417, "name": "Seagull School At Kapolei", "address": "531 Farrington Hwy", "city": "Kapolei", "zip": 96707, "island_dist": "Oahu", "type": "Licensed Group Child Care (Preschools)", "source": "PATCH" }, "geometry": { "type": "Point", "coordinates": [ -158.078294999898105, 21.336461999788614 ] } },
{ "type": "Feature", "properties": { "objectid": 418, "name": "Roots Preschool", "address": "740 Haiku Road", "city": "Haiku", "zip": 96708, "island_dist": "Maui", "type": "Licensed Group Child Care (Preschools)", "source": "PATCH" }, "geometry": { "type": "Point", "coordinates": [ -156.32292059716093, 20.915460208663404 ] } },
{ "type": "Feature", "properties": { "objectid": 419, "name": "Hongwanji Mission School Preschool", "address": "1728 Pali Highway", "city": "Honolulu", "zip": 96813, "island_dist": "Oahu", "type": "Licensed Group Child Care (Preschools)", "source": "PATCH" }, "geometry": { "type": "Point", "coordinates": [ -157.853175273285729, 21.316177768416981 ] } },
{ "type": "Feature", "properties": { "objectid": 420, "name": "Hawaii Baptist Academy Junior Kindergarten", "address": "21 Bates Street", "city": "Honolulu", "zip": 96817, "island_dist": "Oahu", "type": "Licensed Group Child Care (Preschools)", "source": "PATCH" }, "geometry": { "type": "Point", "coordinates": [ -157.852051477662854, 21.321887409046798 ] } },
{ "type": "Feature", "properties": { "objectid": 421, "name": "The Early School", "address": "2510 Bingham Street", "city": "Honolulu", "zip": 96826, "island_dist": "Oahu", "type": "Licensed Group Child Care (Preschools)", "source": "PATCH" }, "geometry": { "type": "Point", "coordinates": [ -157.822579447168152, 21.294456232873483 ] } },
{ "type": "Feature", "properties": { "objectid": 422, "name": "Parent Participation Nursery School", "address": "92 Kaneohe Bay Dr", "city": "Kailua", "zip": 96734, "island_dist": "Oahu", "type": "Licensed Group Child Care (Preschools)", "source": "PATCH" }, "geometry": { "type": "Point", "coordinates": [ -157.75175413759311, 21.425169940877812 ] } },
{ "type": "Feature", "properties": { "objectid": 423, "name": "Kauai Independent Daycare Services, Inc.(K.I.D.S.)", "address": "1346 Inia Street", "city": "Kapaa", "zip": 96746, "island_dist": "Kauai", "type": "Licensed Group Child Care (Preschools)", "source": "PATCH" }, "geometry": { "type": "Point", "coordinates": [ -159.317904433087506, 22.075377705804531 ] } },
{ "type": "Feature", "properties": { "objectid": 424, "name": "Ka Hale O Na Keiki Preschool ", "address": "45-3668 Honokaa-waipio Rd", "city": "Honokaa", "zip": 96727, "island_dist": "East Hawaii", "type": "Licensed Group Child Care (Preschools)", "source": "PATCH" }, "geometry": { "type": "Point", "coordinates": [ -155.470336198842318, 20.079603236225861 ] } },
{ "type": "Feature", "properties": { "objectid": 425, "name": "Waianae Early Education Center At Ma'ili", "address": "87-790 KULAUKU STREET, POD B-7 & B-8", "city": "Waianae", "zip": 96792, "island_dist": "Oahu", "type": "Licensed Group Child Care (Preschools)", "source": "PATCH" }, "geometry": { "type": "Point", "coordinates": [ -158.171755012999114, 21.409419985107338 ] } },
{ "type": "Feature", "properties": { "objectid": 426, "name": "Waianae Early Education Center", "address": "84-1061 Noholio Rd", "city": "Waianae", "zip": 96792, "island_dist": "Oahu", "type": "Licensed Group Child Care (Preschools)", "source": "PATCH" }, "geometry": { "type": "Point", "coordinates": [ -158.201476123979802, 21.466970194623919 ] } },
{ "type": "Feature", "properties": { "objectid": 427, "name": "The Salvation Army Ohana Keiki Day Care Center", "address": "75-223 Kalani Street", "city": "Kailua-kona", "zip": 96740, "island_dist": "West Hawaii", "type": "Licensed Group Child Care (Preschools)", "source": "PATCH" }, "geometry": { "type": "Point", "coordinates": [ -155.987357141685322, 19.642042756720535 ] } },
{ "type": "Feature", "properties": { "objectid": 428, "name": "Hawaii Montessori Schools; Kona Campus Primary Pro", "address": "74-978 Manawalea Street", "city": "Kailua-kona", "zip": 96740, "island_dist": "West Hawaii", "type": "Licensed Group Child Care (Preschools)", "source": "PATCH" }, "geometry": { "type": "Point", "coordinates": [ -155.987569084440651, 19.674510423852063 ] } },
{ "type": "Feature", "properties": { "objectid": 429, "name": "Mililani Community Church Preschool", "address": "95-1100 Kaapeha Street", "city": "Mililani Town", "zip": 96789, "island_dist": "Oahu", "type": "Licensed Group Child Care (Preschools)", "source": "PATCH" }, "geometry": { "type": "Point", "coordinates": [ -157.99641176342638, 21.472731263282711 ] } },
{ "type": "Feature", "properties": { "objectid": 430, "name": "Palisades Baptist Church Preschool", "address": "2251 Auhuhu Street", "city": "Pearl City", "zip": 96782, "island_dist": "Oahu", "type": "Licensed Group Child Care (Preschools)", "source": "PATCH" }, "geometry": { "type": "Point", "coordinates": [ -157.955518368315438, 21.424663259407929 ] } },
{ "type": "Feature", "properties": { "objectid": 431, "name": "Grace Fellowship Childrens Center", "address": "94-1323 Waipio Uka Street", "city": "Waipahu", "zip": 96797, "island_dist": "Oahu", "type": "Licensed Group Child Care (Preschools)", "source": "PATCH" }, "geometry": { "type": "Point", "coordinates": [ -157.995435061837583, 21.420212937838649 ] } },
{ "type": "Feature", "properties": { "objectid": 432, "name": "St Clements School", "address": "1515 Wilder Avenue", "city": "Honolulu", "zip": 96822, "island_dist": "Oahu", "type": "Licensed Group Child Care (Preschools)", "source": "PATCH" }, "geometry": { "type": "Point", "coordinates": [ -157.834759500162704, 21.303270000331199 ] } },
{ "type": "Feature", "properties": { "objectid": 433, "name": "Kawaiahao Church School", "address": "872 Mission Lane", "city": "Honolulu", "zip": 96813, "island_dist": "Oahu", "type": "Licensed Group Child Care (Preschools)", "source": "PATCH" }, "geometry": { "type": "Point", "coordinates": [ -157.858015500411454, 21.304052999964643 ] } },
{ "type": "Feature", "properties": { "objectid": 434, "name": "Kaumana Baptist Keikiland ", "address": "388 Kaumana Drive", "city": "Hilo", "zip": 96720, "island_dist": "East Hawaii", "type": "Licensed Group Child Care (Preschools)", "source": "PATCH" }, "geometry": { "type": "Point", "coordinates": [ -155.110104793480446, 19.708525475793802 ] } },
{ "type": "Feature", "properties": { "objectid": 435, "name": "PACT Keauhou Head Start", "address": "78-6804 Mamalahoa Highway", "city": "Holualoa", "zip": 96725, "island_dist": "West Hawaii", "type": "Licensed Group Child Care (Preschools)", "source": "PATCH" }, "geometry": { "type": "Point", "coordinates": [ -155.941059391951967, 19.566233080013795 ] } },
{ "type": "Feature", "properties": { "objectid": 436, "name": "PACT Kealakehe Head Start", "address": "74-5118 Kealakaa Street; Room Pb-14", "city": "Kailua-kona", "zip": 96740, "island_dist": "West Hawaii", "type": "Licensed Group Child Care (Preschools)", "source": "PATCH" }, "geometry": { "type": "Point", "coordinates": [ -155.982203587623019, 19.66894946296981 ] } },
{ "type": "Feature", "properties": { "objectid": 437, "name": "PACT Waimea Elementary Head Start", "address": "67-1225 Mamalahoa Highway; Room V-103", "city": "Kamuela", "zip": 96743, "island_dist": "West Hawaii", "type": "Licensed Group Child Care (Preschools)", "source": "PATCH" }, "geometry": { "type": "Point", "coordinates": [ -155.670160786199574, 20.01940842588451 ] } },
{ "type": "Feature", "properties": { "objectid": 438, "name": "Olivet Baptist Preschool", "address": "1775 S. Beretania Street", "city": "Honolulu", "zip": 96826, "island_dist": "Oahu", "type": "Licensed Group Child Care (Preschools)", "source": "PATCH" }, "geometry": { "type": "Point", "coordinates": [ -157.832360192647911, 21.297598649692851 ] } },
{ "type": "Feature", "properties": { "objectid": 439, "name": "Angels At Play Preschool & Kindergarten", "address": "2062 South King Street", "city": "Honolulu", "zip": 96826, "island_dist": "Oahu", "type": "Licensed Group Child Care (Preschools)", "source": "PATCH" }, "geometry": { "type": "Point", "coordinates": [ -157.828899373874634, 21.294471423921699 ] } },
{ "type": "Feature", "properties": { "objectid": 440, "name": "Alphabetland Preschool and Kindergarten - Newtown", "address": "98-456 Kaahele Street", "city": "Aiea", "zip": 96701, "island_dist": "Oahu", "type": "Licensed Group Child Care (Preschools)", "source": "PATCH" }, "geometry": { "type": "Point", "coordinates": [ -157.946854171364095, 21.396286159900534 ] } },
{ "type": "Feature", "properties": { "objectid": 441, "name": "Alphabetland Preschool - Pearl City", "address": "1716 Komo Mai Drive", "city": "Pearl City", "zip": 96782, "island_dist": "Oahu", "type": "Licensed Group Child Care (Preschools)", "source": "PATCH" }, "geometry": { "type": "Point", "coordinates": [ -157.9637205004218, 21.410603999596194 ] } },
{ "type": "Feature", "properties": { "objectid": 442, "name": "Kamehameha Preschool-Kalamaula ", "address": "612 Maunaloa Highway Building A", "city": "Kaunakakai", "zip": 96748, "island_dist": "Molokai", "type": "Licensed Group Child Care (Preschools)", "source": "PATCH" }, "geometry": { "type": "Point", "coordinates": [ -157.035495661430957, 21.096305520672352 ] } },
{ "type": "Feature", "properties": { "objectid": 443, "name": "Punana Leo O Waialua", "address": "67-174 Farrington Hwy.", "city": "Waialua", "zip": 96791, "island_dist": "Oahu", "type": "Licensed Group Child Care (Preschools)", "source": "PATCH" }, "geometry": { "type": "Point", "coordinates": [ -158.128670486547463, 21.567761545902059 ] } },
{ "type": "Feature", "properties": { "objectid": 444, "name": "Ewa Plains Enrichment Programs, LLC DBA Ewa Beach Preschool", "address": "91-1258 Renton Road", "city": "Ewa Beach", "zip": 96706, "island_dist": "Oahu", "type": "Licensed Group Child Care (Preschools)", "source": "PATCH" }, "geometry": { "type": "Point", "coordinates": [ -158.034718837301853, 21.342954780882451 ] } },
{ "type": "Feature", "properties": { "objectid": 445, "name": "Enrichment Academy Child Care Tutoring Service LLC.", "address": "91-679 Ft. Weaver Rd", "city": "Ewa Beach", "zip": 96706, "island_dist": "Oahu", "type": "Licensed Group Child Care (Preschools)", "source": "PATCH" }, "geometry": { "type": "Point", "coordinates": [ -158.010146999929589, 21.311891999925315 ] } },
{ "type": "Feature", "properties": { "objectid": 446, "name": "Kahului Baptist Preschool", "address": "309 South Puunene Avenue", "city": "Kahului", "zip": 96732, "island_dist": "Maui", "type": "Licensed Group Child Care (Preschools)", "source": "PATCH" }, "geometry": { "type": "Point", "coordinates": [ -156.463504260151495, 20.883075515353738 ] } },
{ "type": "Feature", "properties": { "objectid": 447, "name": "Holy Innocents Preschool", "address": "561 Front Street", "city": "Lahaina", "zip": 96761, "island_dist": "Maui", "type": "Licensed Group Child Care (Preschools)", "source": "PATCH" }, "geometry": { "type": "Point", "coordinates": [ -156.676027329337558, 20.869743846974437 ] } },
{ "type": "Feature", "properties": { "objectid": 448, "name": "Strode Montessori Mauka Preschool", "address": "36 Merchant Street", "city": "Honolulu", "zip": 96813, "island_dist": "Oahu", "type": "Licensed Group Child Care (Preschools)", "source": "PATCH" }, "geometry": { "type": "Point", "coordinates": [ -157.863388348704063, 21.309858523249691 ] } },
{ "type": "Feature", "properties": { "objectid": 449, "name": "Aloha Kai Academy, INC. ", "address": "954 Baldwin Avenue", "city": "Paia", "zip": 96779, "island_dist": "Maui", "type": "Licensed Group Child Care (Preschools)", "source": "PATCH" }, "geometry": { "type": "Point", "coordinates": [ -156.363359192421484, 20.899412531941515 ] } },
{ "type": "Feature", "properties": { "objectid": 450, "name": "Punana Leo O Nuuanu", "address": "110 Coello Way", "city": "Honolulu", "zip": 96817, "island_dist": "Oahu", "type": "Licensed Group Child Care (Preschools)", "source": "PATCH" }, "geometry": { "type": "Point", "coordinates": [ -157.847012891221453, 21.331375468743204 ] } },
{ "type": "Feature", "properties": { "objectid": 451, "name": "Trinity Lutheran School Preschool Program", "address": "1611 California Avenue", "city": "Wahiawa", "zip": 96786, "island_dist": "Oahu", "type": "Licensed Group Child Care (Preschools)", "source": "PATCH" }, "geometry": { "type": "Point", "coordinates": [ -158.00996623002527, 21.501920694758596 ] } },
{ "type": "Feature", "properties": { "objectid": 452, "name": "Kulia Christian Academy", "address": "290 Sand Island Access Road", "city": "Honolulu", "zip": 96819, "island_dist": "Oahu", "type": "Licensed Group Child Care (Preschools)", "source": "PATCH" }, "geometry": { "type": "Point", "coordinates": [ -157.888579500122773, 21.327318000240595 ] } },
{ "type": "Feature", "properties": { "objectid": 453, "name": "Kid's Prep Preschool", "address": "94-440 Mokuola Street", "city": "Waipahu", "zip": 96797, "island_dist": "Oahu", "type": "Licensed Group Child Care (Preschools)", "source": "PATCH" }, "geometry": { "type": "Point", "coordinates": [ -158.006875499836639, 21.386907000144333 ] } },
{ "type": "Feature", "properties": { "objectid": 454, "name": "Mary, Star Of The Sea Early Learning Center", "address": "4470 Aliikoa Street #100", "city": "Honolulu", "zip": 96821, "island_dist": "Oahu", "type": "Licensed Group Child Care (Preschools)", "source": "PATCH" }, "geometry": { "type": "Point", "coordinates": [ -157.781104652562192, 21.278678287004524 ] } },
{ "type": "Feature", "properties": { "objectid": 455, "name": "KCAA Wai Kahala Preschool", "address": "1261 Pueo Street", "city": "Honolulu", "zip": 96816, "island_dist": "Oahu", "type": "Licensed Group Child Care (Preschools)", "source": "PATCH" }, "geometry": { "type": "Point", "coordinates": [ -157.785675487168703, 21.272268685920164 ] } },
{ "type": "Feature", "properties": { "objectid": 456, "name": "KCAA Kuapa Preschool", "address": "6774 Hawaii Kai Drive", "city": "Honolulu", "zip": 96825, "island_dist": "Oahu", "type": "Licensed Group Child Care (Preschools)", "source": "PATCH" }, "geometry": { "type": "Point", "coordinates": [ -157.707399980188569, 21.290965564229268 ] } },
{ "type": "Feature", "properties": { "objectid": 457, "name": "St Joseph School Pre-Kindergarten", "address": "94-651 Farrington Hwy", "city": "Waipahu", "zip": 96797, "island_dist": "Oahu", "type": "Licensed Group Child Care (Preschools)", "source": "PATCH" }, "geometry": { "type": "Point", "coordinates": [ -158.008567499791582, 21.382379999565483 ] } },
{ "type": "Feature", "properties": { "objectid": 458, "name": "Trinity Christian School", "address": "875 Auloa Road", "city": "Kailua", "zip": 96734, "island_dist": "Oahu", "type": "Licensed Group Child Care (Preschools)", "source": "PATCH" }, "geometry": { "type": "Point", "coordinates": [ -157.763994023420508, 21.375057247216652 ] } },
{ "type": "Feature", "properties": { "objectid": 459, "name": "Our Lady Of Good Counsel Preschool", "address": "1530 Hoolana St", "city": "Pearl City", "zip": 96782, "island_dist": "Oahu", "type": "Licensed Group Child Care (Preschools)", "source": "PATCH" }, "geometry": { "type": "Point", "coordinates": [ -157.964287499836644, 21.405167999887773 ] } },
{ "type": "Feature", "properties": { "objectid": 460, "name": "Kauai Montessori Project", "address": "4534 Uahi Road", "city": "Lihue", "zip": 96766, "island_dist": "Kauai", "type": "Licensed Group Child Care (Preschools)", "source": "PATCH" }, "geometry": { "type": "Point", "coordinates": [ -159.378120038249136, 21.973864128434421 ] } },
{ "type": "Feature", "properties": { "objectid": 461, "name": "University Of The Nations Preschool", "address": "75-5851 Kuakini Highway; #228", "city": "Kailua-kona", "zip": 96740, "island_dist": "West Hawaii", "type": "Licensed Group Child Care (Preschools)", "source": "PATCH" }, "geometry": { "type": "Point", "coordinates": [ -155.986839799811179, 19.632011326400278 ] } },
{ "type": "Feature", "properties": { "objectid": 462, "name": "The Meleaina School", "address": "641 Olinda Road", "city": "Makawao", "zip": 96768, "island_dist": "Maui", "type": "Licensed Group Child Care (Preschools)", "source": "PATCH" }, "geometry": { "type": "Point", "coordinates": [ -156.305211051854371, 20.836959884949991 ] } },
{ "type": "Feature", "properties": { "objectid": 463, "name": "Doris Todd Christian Academy", "address": "519 Baldwin Avenue", "city": "Paia", "zip": 96779, "island_dist": "Maui", "type": "Licensed Group Child Care (Preschools)", "source": "PATCH" }, "geometry": { "type": "Point", "coordinates": [ -156.372010518856342, 20.903346344072403 ] } },
{ "type": "Feature", "properties": { "objectid": 464, "name": "Wesley Childrens Programs Enrichment ", "address": "1350 Hunakai Street", "city": "Honolulu", "zip": 96816, "island_dist": "Oahu", "type": "Licensed Group Child Care (Preschools)", "source": "PATCH" }, "geometry": { "type": "Point", "coordinates": [ -157.787244354920603, 21.28064083537037 ] } },
{ "type": "Feature", "properties": { "objectid": 465, "name": "Na Pualei 'O Sarah Kupanihi Kamakau", "address": "46-500 Kuneki Street", "city": "Kaneohe", "zip": 96744, "island_dist": "Oahu", "type": "Licensed Group Child Care (Preschools)", "source": "PATCH" }, "geometry": { "type": "Point", "coordinates": [ -157.821716873799943, 21.408971644919781 ] } },
{ "type": "Feature", "properties": { "objectid": 466, "name": "All God's Children Preschool", "address": "495 Puupeeula Avenue", "city": "Hoolehua", "zip": 96729, "island_dist": "Molokai", "type": "Licensed Group Child Care (Preschools)", "source": "PATCH" }, "geometry": { "type": "Point", "coordinates": [ -157.069646521817333, 21.163497998017675 ] } },
{ "type": "Feature", "properties": { "objectid": 467, "name": "KCAA Mother Rice Preschool", "address": "2707 South King Street", "city": "Honolulu", "zip": 96826, "island_dist": "Oahu", "type": "Licensed Group Child Care (Preschools)", "source": "PATCH" }, "geometry": { "type": "Point", "coordinates": [ -157.820948999743848, 21.290616000398629 ] } },
{ "type": "Feature", "properties": { "objectid": 468, "name": "Keiki O Ka Aina Preschool - Palolo Site", "address": "2528 10th Avenue", "city": "Honolulu", "zip": 96816, "island_dist": "Oahu", "type": "Licensed Group Child Care (Preschools)", "source": "PATCH" }, "geometry": { "type": "Point", "coordinates": [ -157.790029500018079, 21.303665999593335 ] } },
{ "type": "Feature", "properties": { "objectid": 469, "name": "Saint Mark Lutheran School ELC", "address": "45-725 Kamehameha Hwy", "city": "Kaneohe", "zip": 96744, "island_dist": "Oahu", "type": "Licensed Group Child Care (Preschools)", "source": "PATCH" }, "geometry": { "type": "Point", "coordinates": [ -157.798345500019224, 21.408047999825968 ] } },
{ "type": "Feature", "properties": { "objectid": 470, "name": "Hna High & Elementary", "address": "4111 Hana Hwy.", "city": "Hana", "zip": 96713, "island_dist": "Maui", "type": "Public-private partnership", "source": "EOEL" }, "geometry": { "type": "Point", "coordinates": [ -156.000465115904518, 20.775584295362918 ] } },
{ "type": "Feature", "properties": { "objectid": 471, "name": "Nnkuli Elementary", "address": "89-778 Haleakala Avenue", "city": "Waianae", "zip": 96792, "island_dist": "Oahu", "type": "Public-private partnership", "source": "EOEL" }, "geometry": { "type": "Point", "coordinates": [ -158.13401849984939, 21.387807000313899 ] } },
{ "type": "Feature", "properties": { "objectid": 472, "name": "Puuhale Elementary", "address": "345 Puuhale Road", "city": "Honolulu", "zip": 96819, "island_dist": "Oahu", "type": "Public-private partnership", "source": "EOEL" }, "geometry": { "type": "Point", "coordinates": [ -157.884516000437685, 21.327345000298561 ] } },
{ "type": "Feature", "properties": { "objectid": 473, "name": "Waimea Elementary", "address": "67-1225 Mamalahoa Hwy.", "city": "Kamuela", "zip": 96743, "island_dist": "Hawaii", "type": "Public-private partnership", "source": "EOEL" }, "geometry": { "type": "Point", "coordinates": [ -155.670160786199574, 20.01940842588451 ] } },
{ "type": "Feature", "properties": { "objectid": 474, "name": "Ka Umeke Keo Public Charter School", "address": "1500 Kalanianaole Avenue.", "city": "Hilo", "zip": 96720, "island_dist": "Hawaii", "type": "Charter", "source": "EOEL" }, "geometry": { "type": "Point", "coordinates": [ -155.035886005276097, 19.734842879871326 ] } },
{ "type": "Feature", "properties": { "objectid": 475, "name": "Ke Kula o Nwahokalanipuu Iki Laboratory Public Charter School", "address": "16-120 Opukahaia St.", "city": "Kea'au", "zip": 96749, "island_dist": "Hawaii", "type": "Charter", "source": "EOEL" }, "geometry": { "type": "Point", "coordinates": [ -155.028099569118154, 19.604814250933114 ] } },
{ "type": "Feature", "properties": { "objectid": 476, "name": "Ke Kula o Nwahokalanipuu Iki Laboratory Public Charter School", "address": "64-756 Mamalahoa Hwy.", "city": "Waimea", "zip": 96743, "island_dist": "Hawaii", "type": "Charter", "source": "EOEL" }, "geometry": { "type": "Point", "coordinates": [ -155.640477123342777, 20.030117767242498 ] } },
{ "type": "Feature", "properties": { "objectid": 477, "name": "Ke Kula o Nwahokalanipuu Iki Laboratory Public Charter School", "address": "89-308 Farrington Hwy.", "city": "Waianae", "zip": 96792, "island_dist": "Oahu", "type": "Charter", "source": "EOEL" }, "geometry": { "type": "Point", "coordinates": [ -158.141218722102167, 21.377546243810777 ] } },
{ "type": "Feature", "properties": { "objectid": 478, "name": "Kua O Ka L New Century Public Charter School", "address": "42 Kinoole St", "city": "Hilo", "zip": 96720, "island_dist": "Hawaii", "type": "Charter", "source": "EOEL" }, "geometry": { "type": "Point", "coordinates": [ -155.089459782620906, 19.725504905992796 ] } },
{ "type": "Feature", "properties": { "objectid": 479, "name": "Kua O Ka L New Century Public Charter School", "address": "345 Makalika St.", "city": "Hilo", "zip": 96720, "island_dist": "Hawaii", "type": "Charter", "source": "EOEL" }, "geometry": { "type": "Point", "coordinates": [ -155.055658187815737, 19.671337236061589 ] } },
{ "type": "Feature", "properties": { "objectid": 480, "name": "Lauphoehoe Community Public Charter School", "address": "35-2065 Old Mamalahoa HWY", "city": "Laupahoehoe", "zip": 96764, "island_dist": "Hawaii", "type": "Charter", "source": "EOEL" }, "geometry": { "type": "Point", "coordinates": [ -155.226495704852283, 19.980371644807029 ] } },
{ "type": "Feature", "properties": { "objectid": 481, "name": "N Wai Ola Public Charter School", "address": "18-1355 Volcano Hwy", "city": "Mountain View", "zip": 96771, "island_dist": "Hawaii", "type": "Charter", "source": "EOEL" }, "geometry": { "type": "Point", "coordinates": [ -155.108723136163178, 19.549199066396202 ] } },
{ "type": "Feature", "properties": { "objectid": 482, "name": "Volcano School of Arts & Sciences", "address": "99-128 Old Volcano Road", "city": "Volcano", "zip": 96785, "island_dist": "Hawaii", "type": "Charter", "source": "EOEL" }, "geometry": { "type": "Point", "coordinates": [ -155.173685084881441, 19.454976483606572 ] } },
{ "type": "Feature", "properties": { "objectid": 483, "name": "Ke Kula Niihau O Kekaha Learning Center", "address": "8135 Kekaha Rd.", "city": "Kekaha", "zip": 96752, "island_dist": "Kauai", "type": "Charter", "source": "EOEL" }, "geometry": { "type": "Point", "coordinates": [ -159.715683997366199, 21.972522203765777 ] } },
{ "type": "Feature", "properties": { "objectid": 484, "name": "Kualapuu Charter School ", "address": "260 Farrington Avenue", "city": "Kualapuu", "zip": 96757, "island_dist": "Molokai", "type": "Charter", "source": "EOEL" }, "geometry": { "type": "Point", "coordinates": [ -157.0365118762017, 21.152186982311065 ] } },
{ "type": "Feature", "properties": { "objectid": 485, "name": "Kamaile Academy Public Charter School", "address": "85-180 Ala Akau Street", "city": "Waianae", "zip": 96792, "island_dist": "Oahu", "type": "Charter", "source": "EOEL" }, "geometry": { "type": "Point", "coordinates": [ -158.195062521724992, 21.456462924267928 ] } },
{ "type": "Feature", "properties": { "objectid": 486, "name": "Ke Kula o Samuel M. Kamakau Laboratory Public Charter School", "address": "46-500 Kuneki Street", "city": "Kaneohe", "zip": 96744, "island_dist": "Oahu", "type": "Charter", "source": "EOEL" }, "geometry": { "type": "Point", "coordinates": [ -157.821716873799943, 21.408971644919781 ] } },
{ "type": "Feature", "properties": { "objectid": 487, "name": "Waialae Elementary Public Charter School", "address": "1045 19th Avenue", "city": "Honolulu", "zip": 96816, "island_dist": "Oahu", "type": "Charter", "source": "EOEL" }, "geometry": { "type": "Point", "coordinates": [ -157.792798673562089, 21.276444585100208 ] } },
{ "type": "Feature", "properties": { "objectid": 488, "name": "Aiea Elementary", "address": "99-370 Moanalua Road", "city": "Aiea", "zip": 96701, "island_dist": "Oahu", "type": "DOE", "source": "EOEL" }, "geometry": { "type": "Point", "coordinates": [ -157.927945500184819, 21.375765000128393 ] } },
{ "type": "Feature", "properties": { "objectid": 489, "name": "Chiefess Kapi'olani Elementary", "address": "966 Kilauea Avenue", "city": "Hilo", "zip": 96720, "island_dist": "Hawaii", "type": "DOE", "source": "EOEL" }, "geometry": { "type": "Point", "coordinates": [ -155.07754657198052, 19.713901276684499 ] } },
{ "type": "Feature", "properties": { "objectid": 490, "name": "Eleele Elementary", "address": "4750 Uliuli Road", "city": "Eleele", "zip": 96705, "island_dist": "Kauai", "type": "DOE", "source": "EOEL" }, "geometry": { "type": "Point", "coordinates": [ -159.583897711968774, 21.909340638310692 ] } },
{ "type": "Feature", "properties": { "objectid": 491, "name": "Hale'iwa Elementary", "address": "66-505 Haleiwa Road", "city": "Haleiwa", "zip": 96712, "island_dist": "Oahu", "type": "DOE", "source": "EOEL" }, "geometry": { "type": "Point", "coordinates": [ -158.113453840857289, 21.584420879231828 ] } },
{ "type": "Feature", "properties": { "objectid": 492, "name": "Hilo Union Elementary", "address": "506 Waianuenue Avenue", "city": "Hilo", "zip": 96720, "island_dist": "Hawaii", "type": "DOE", "source": "EOEL" }, "geometry": { "type": "Point", "coordinates": [ -155.09453298483291, 19.721908398868543 ] } },
{ "type": "Feature", "properties": { "objectid": 493, "name": "Honaunau Elementary", "address": "83-5360 Mamalahoa Highway", "city": "Captain Cook", "zip": 96704, "island_dist": "Hawaii", "type": "DOE", "source": "EOEL" }, "geometry": { "type": "Point", "coordinates": [ -155.879692856911419, 19.450726984808927 ] } },
{ "type": "Feature", "properties": { "objectid": 494, "name": "Honokaa Elementary", "address": "45-534 Pakalana Street ", "city": "Honokaa", "zip": 96727, "island_dist": "Hawaii", "type": "DOE", "source": "EOEL" }, "geometry": { "type": "Point", "coordinates": [ -155.464100735827714, 20.075507141924675 ] } },
{ "type": "Feature", "properties": { "objectid": 495, "name": "Kailua Elementary", "address": "315 Kuulei Road", "city": "Kailua", "zip": 96734, "island_dist": "Oahu", "type": "DOE", "source": "EOEL" }, "geometry": { "type": "Point", "coordinates": [ -157.741136117839545, 21.395967995203456 ] } },
{ "type": "Feature", "properties": { "objectid": 496, "name": "Kalihi Uka Elementary", "address": "2411 Kalihi Street", "city": "Honolulu", "zip": 96819, "island_dist": "Oahu", "type": "DOE", "source": "EOEL" }, "geometry": { "type": "Point", "coordinates": [ -157.862097724014632, 21.345594266557438 ] } },
{ "type": "Feature", "properties": { "objectid": 497, "name": "Kaplama Elementary", "address": "1601 N School Street", "city": "Honolulu", "zip": 96817, "island_dist": "Oahu", "type": "DOE", "source": "EOEL" }, "geometry": { "type": "Point", "coordinates": [ -157.868707877918752, 21.335074464375985 ] } },
{ "type": "Feature", "properties": { "objectid": 498, "name": "Kaunakakai Elementary", "address": "30 Ailoa Street", "city": "Kaunakakai", "zip": 96748, "island_dist": "Molokai", "type": "DOE", "source": "EOEL" }, "geometry": { "type": "Point", "coordinates": [ -157.018332852255696, 21.088635036325389 ] } },
{ "type": "Feature", "properties": { "objectid": 499, "name": "Keaau Elementary", "address": "16-680 Keaau-Pahoa Road", "city": "Keaau", "zip": 96749, "island_dist": "Hawaii", "type": "DOE", "source": "EOEL" }, "geometry": { "type": "Point", "coordinates": [ -155.034522446083002, 19.613181004780422 ] } },
{ "type": "Feature", "properties": { "objectid": 500, "name": "Kekaha Elementary", "address": "8140 Kekaha Road", "city": "Kekaha", "zip": 96752, "island_dist": "Kauai", "type": "DOE", "source": "EOEL" }, "geometry": { "type": "Point", "coordinates": [ -159.715466933530365, 21.972300834579155 ] } },
{ "type": "Feature", "properties": { "objectid": 501, "name": "Keolu Elementary", "address": "1416 Keolu Drive", "city": "Kailua", "zip": 96734, "island_dist": "Oahu", "type": "DOE", "source": "EOEL" }, "geometry": { "type": "Point", "coordinates": [ -157.735178999664186, 21.371850000419819 ] } },
{ "type": "Feature", "properties": { "objectid": 502, "name": "Keonepoko Elementary", "address": "15-890 Kahakai Boulevard", "city": "Pahoa", "zip": 96778, "island_dist": "Hawaii", "type": "DOE", "source": "EOEL" }, "geometry": { "type": "Point", "coordinates": [ -154.929108807706598, 19.526099065749161 ] } },
{ "type": "Feature", "properties": { "objectid": 503, "name": "Kilohana Elementary", "address": "334 Kamehameha V Highway", "city": "Kaunakakai", "zip": 96748, "island_dist": "Molokai", "type": "DOE", "source": "EOEL" }, "geometry": { "type": "Point", "coordinates": [ -157.013675975619236, 21.085561543104951 ] } },
{ "type": "Feature", "properties": { "objectid": 504, "name": "Kohala Elementary", "address": "54-3609 Akoni Pule Highway", "city": "Kapaau", "zip": 96755, "island_dist": "Hawaii", "type": "DOE", "source": "EOEL" }, "geometry": { "type": "Point", "coordinates": [ -155.818951483195093, 20.237036825728751 ] } },
{ "type": "Feature", "properties": { "objectid": 505, "name": "Konawaena Elementary", "address": "81-901 Onouli Road", "city": "Kealakekua", "zip": 96750, "island_dist": "Hawaii", "type": "DOE", "source": "EOEL" }, "geometry": { "type": "Point", "coordinates": [ -155.923186859693999, 19.504845085872216 ] } },
{ "type": "Feature", "properties": { "objectid": 506, "name": "Kula Elementary", "address": "5000 Kula Highway", "city": "Kula", "zip": 96790, "island_dist": "Maui", "type": "DOE", "source": "EOEL" }, "geometry": { "type": "Point", "coordinates": [ -156.328820879996158, 20.761217510160915 ] } },
{ "type": "Feature", "properties": { "objectid": 507, "name": "LnaiElementary", "address": "555 Fraser Avenue", "city": "Lanai City", "zip": 96763, "island_dist": "Lanai", "type": "DOE", "source": "EOEL" }, "geometry": { "type": "Point", "coordinates": [ -156.921926002814928, 20.826415061694082 ] } },
{ "type": "Feature", "properties": { "objectid": 508, "name": "Likelike Elementary", "address": "1618 Palama Street", "city": "Honolulu", "zip": 96817, "island_dist": "Oahu", "type": "DOE", "source": "EOEL" }, "geometry": { "type": "Point", "coordinates": [ -157.864171500204435, 21.325104000387494 ] } },
{ "type": "Feature", "properties": { "objectid": 509, "name": "Linapuni Elementary ", "address": "1434 Linapuni Street", "city": "Honolulu", "zip": 96819, "island_dist": "Oahu", "type": "DOE", "source": "EOEL" }, "geometry": { "type": "Point", "coordinates": [ -157.877863264292785, 21.338747695172422 ] } },
{ "type": "Feature", "properties": { "objectid": 510, "name": "Mountain View Elementary", "address": "18-1235 Volcano Road", "city": "Mountain View", "zip": 96771, "island_dist": "Hawaii", "type": "DOE", "source": "EOEL" }, "geometry": { "type": "Point", "coordinates": [ -155.102735007846064, 19.555093077365783 ] } },
{ "type": "Feature", "properties": { "objectid": 511, "name": "Nlehu Elementary ", "address": "95-5547 Mamalahoa Highway", "city": "Naalehu", "zip": 96772, "island_dist": "Hawaii", "type": "DOE", "source": "EOEL" }, "geometry": { "type": "Point", "coordinates": [ -155.580758660533263, 19.061816747334106 ] } },
{ "type": "Feature", "properties": { "objectid": 512, "name": "Nnikapono Elementary", "address": "89-153 Mano Avenue", "city": "Waianae", "zip": 96792, "island_dist": "Oahu", "type": "DOE", "source": "EOEL" }, "geometry": { "type": "Point", "coordinates": [ -158.144107499619821, 21.382830000345319 ] } },
{ "type": "Feature", "properties": { "objectid": 513, "name": "Nnkuli Elementary", "address": "89-778 Haleakala Avenue", "city": "Waianae", "zip": 96792, "island_dist": "Oahu", "type": "DOE", "source": "EOEL" }, "geometry": { "type": "Point", "coordinates": [ -158.13401849984939, 21.387807000313899 ] } },
{ "type": "Feature", "properties": { "objectid": 514, "name": "Phoa Elementary", "address": "15-3030 Pahoa Village Road", "city": "Pahoa", "zip": 96778, "island_dist": "Hawaii", "type": "DOE", "source": "EOEL" }, "geometry": { "type": "Point", "coordinates": [ -154.942513895990629, 19.492458205393795 ] } },
{ "type": "Feature", "properties": { "objectid": 515, "name": "Palolo Elementary", "address": "2106 10th Avenue", "city": "Honolulu", "zip": 96816, "island_dist": "Oahu", "type": "DOE", "source": "EOEL" }, "geometry": { "type": "Point", "coordinates": [ -157.791496493124782, 21.299753711423499 ] } },
{ "type": "Feature", "properties": { "objectid": 516, "name": "Pukalani Elementary", "address": "2945 Iolani Street", "city": "Pukalani", "zip": 96768, "island_dist": "Maui", "type": "DOE", "source": "EOEL" }, "geometry": { "type": "Point", "coordinates": [ -156.346292134797096, 20.839343124821866 ] } },
{ "type": "Feature", "properties": { "objectid": 517, "name": "Puuhale Elementary", "address": "345 Puuhale Road", "city": "Honolulu", "zip": 96819, "island_dist": "Oahu", "type": "DOE", "source": "EOEL" }, "geometry": { "type": "Point", "coordinates": [ -157.884516000437685, 21.327345000298561 ] } },
{ "type": "Feature", "properties": { "objectid": 518, "name": "Waihole Elementary", "address": "48-215 Waiahole Valley Road", "city": "Kaneohe", "zip": 96744, "island_dist": "Oahu", "type": "DOE", "source": "EOEL" }, "geometry": { "type": "Point", "coordinates": [ -157.852262337075388, 21.482696668404003 ] } },
{ "type": "Feature", "properties": { "objectid": 519, "name": "Waialua Elementary", "address": "67-020 Waialua Beach Road", "city": "Waialua", "zip": 96791, "island_dist": "Oahu", "type": "DOE", "source": "EOEL" }, "geometry": { "type": "Point", "coordinates": [ -158.121273338803491, 21.576213844414525 ] } },
{ "type": "Feature", "properties": { "objectid": 520, "name": "Wai'anae Elementary", "address": "85-220 McArthur Street", "city": "Waianae", "zip": 96792, "island_dist": "Oahu", "type": "DOE", "source": "EOEL" }, "geometry": { "type": "Point", "coordinates": [ -158.184248431821572, 21.444728653120844 ] } },
{ "type": "Feature", "properties": { "objectid": 521, "name": "Waimanalo Elementary and Intermediate", "address": "41-1330 Kalanianaole Highway", "city": "Waimanalo", "zip": 96795, "island_dist": "Oahu", "type": "DOE", "source": "EOEL" }, "geometry": { "type": "Point", "coordinates": [ -157.714985203570791, 21.346900406749739 ] } }
]
}
