{
"type": "FeatureCollection",
"name": "Assisted_Living_Facilities",
"crs": { "type": "name", "properties": { "name": "urn:ogc:def:crs:OGC:1.3:CRS84" } },
"features": [
{ "type": "Feature", "properties": { "objectid": 1, "name": "15 Craigside", "address": "15 Craigside Place", "city": "Honolulu", "zipcode": 96817, "island": "Oahu", "phone_num": 8085237000, "license_exp": "2022-06-30T00:00:00Z", "license_num": "16-ALF" }, "geometry": { "type": "Point", "coordinates": [ -157.848742954927104, 21.323116036916243 ] } },
{ "type": "Feature", "properties": { "objectid": 2, "name": "Arcadia Retirement Residence", "address": "1434 Punahou Street", "city": "Honolulu", "zipcode": 96822, "island": "Oahu", "phone_num": 8089410941, "license_exp": "2023-08-31T00:00:00Z", "license_num": "1-ALF" }, "geometry": { "type": "Point", "coordinates": [ -157.833432608366365, 21.301696809443051 ] } },
{ "type": "Feature", "properties": { "objectid": 3, "name": "Hawaii Kai Retirement Comm Phase I and II", "address": "428 Kawaihae Street", "city": "Honolulu", "zipcode": 96825, "island": "Oahu", "phone_num": 8083959599, "license_exp": "2022-04-30T00:00:00Z", "license_num": "12-ALF" }, "geometry": { "type": "Point", "coordinates": [ -157.716055738340174, 21.292595022711794 ] } },
{ "type": "Feature", "properties": { "objectid": 4, "name": "Hi'olani Assisted Living Center at Kahala Nui", "address": "4389 Malia Street", "city": "Honolulu", "zipcode": 96821, "island": "Oahu", "phone_num": 8082187000, "license_exp": "2023-05-31T00:00:00Z", "license_num": "10-ALF" }, "geometry": { "type": "Point", "coordinates": [ -157.783141420234585, 21.28039326329354 ] } },
{ "type": "Feature", "properties": { "objectid": 5, "name": "Ilima at Leihano", "address": "739 Leihano Street", "city": "Kapolei", "zipcode": 96707, "island": "Oahu", "phone_num": 8086748022, "license_exp": "2022-08-31T00:00:00Z", "license_num": "20-ALF" }, "geometry": { "type": "Point", "coordinates": [ -158.074612730832428, 21.330492470859213 ] } },
{ "type": "Feature", "properties": { "objectid": 6, "name": "Kalakaua Gardens", "address": "1723 Kalakaua Avenue", "city": "Honolulu", "zipcode": 96826, "island": "Oahu", "phone_num": 8085182273, "license_exp": "2022-09-30T00:00:00Z", "license_num": "21-ALF" }, "geometry": { "type": "Point", "coordinates": [ -157.836205230966272, 21.291446839436471 ] } },
{ "type": "Feature", "properties": { "objectid": 7, "name": "One Kalakaua Senior Living", "address": "1314 Kalakaua Avenue", "city": "Honolulu", "zipcode": 96826, "island": "Oahu", "phone_num": 8089834400, "license_exp": "2023-04-30T00:00:00Z", "license_num": "4-ALF" }, "geometry": { "type": "Point", "coordinates": [ -157.8367678969542, 21.299090300174839 ] } },
{ "type": "Feature", "properties": { "objectid": 8, "name": "Pohai Nani Good Samaritan", "address": "45-090 Namoku Street", "city": "Kaneohe", "zipcode": 96744, "island": "Oahu", "phone_num": 8082476211, "license_exp": "2023-05-31T00:00:00Z", "license_num": "7-ALF" }, "geometry": { "type": "Point", "coordinates": [ -157.784504039557021, 21.401593439110599 ] } },
{ "type": "Feature", "properties": { "objectid": 9, "name": "Regency at Puakea, L.L.C.", "address": "2130 Kaneka Street", "city": "Lihue", "zipcode": 96766, "island": "Kauai", "phone_num": 8082464449, "license_exp": "2023-07-31T00:00:00Z", "license_num": "9-ALF" }, "geometry": { "type": "Point", "coordinates": [ -159.387394467680394, 21.966113389724331 ] } },
{ "type": "Feature", "properties": { "objectid": 10, "name": "Regency Hualalai", "address": "75-181 Hualalai Road", "city": "Kailua-Kona", "zipcode": 96740, "island": "Big Island", "phone_num": 8083297878, "license_exp": "2023-07-31T00:00:00Z", "license_num": "22-ALF" }, "geometry": { "type": "Point", "coordinates": [ -155.988221305977987, 19.63736813804146 ] } },
{ "type": "Feature", "properties": { "objectid": 11, "name": "Roselani Place Assisted Living Facility", "address": "88 South Papa Avenue", "city": "Kahului", "zipcode": 96732, "island": "Maui", "phone_num": 8088717720, "license_exp": "2023-10-31T00:00:00Z", "license_num": "6-ALF" }, "geometry": { "type": "Point", "coordinates": [ -156.484300685761895, 20.886958805102779 ] } },
{ "type": "Feature", "properties": { "objectid": 12, "name": "The Plaza at Kaneohe", "address": "46-068 Alaloa Street", "city": "Kaneohe", "zipcode": 96744, "island": "Oahu", "phone_num": 8086287604, "license_exp": "2023-07-31T00:00:00Z", "license_num": "23-ALF" }, "geometry": { "type": "Point", "coordinates": [ -157.807084680912169, 21.418903150340327 ] } },
{ "type": "Feature", "properties": { "objectid": 13, "name": "The Plaza at Mililani", "address": "95-1050 Ukuwai Street", "city": "Mililani", "zipcode": 96789, "island": "Oahu", "phone_num": 8086268807, "license_exp": "2023-04-30T00:00:00Z", "license_num": "14-ALF" }, "geometry": { "type": "Point", "coordinates": [ -158.005156011689735, 21.470102217785961 ] } },
{ "type": "Feature", "properties": { "objectid": 14, "name": "The Plaza at Moanalua", "address": "1280 Moanalualani Place", "city": "Honolulu", "zipcode": 96818, "island": "Oahu", "phone_num": 8088338880, "license_exp": "2022-10-31T00:00:00Z", "license_num": "15-ALF" }, "geometry": { "type": "Point", "coordinates": [ -157.901771686980425, 21.365927216550663 ] } },
{ "type": "Feature", "properties": { "objectid": 15, "name": "The Plaza at Pearl City", "address": "1048 Kuala Street", "city": "Pearl City", "zipcode": 96782, "island": "Oahu", "phone_num": 8084558808, "license_exp": "2022-12-31T00:00:00Z", "license_num": "18-ALF" }, "geometry": { "type": "Point", "coordinates": [ -157.977970853414263, 21.397697524504867 ] } },
{ "type": "Feature", "properties": { "objectid": 16, "name": "The Plaza at Punchbowl", "address": "918 Lunalilo Street", "city": "Honolulu", "zipcode": 96825, "island": "Oahu", "phone_num": 8087928800, "license_exp": "2021-12-31T00:00:00Z", "license_num": "8-ALF" }, "geometry": { "type": "Point", "coordinates": [ -157.847825912326755, 21.305693537343728 ] } },
{ "type": "Feature", "properties": { "objectid": 17, "name": "The Plaza at Waikiki", "address": "1812 Kalakaua Avenue", "city": "Honolulu", "zipcode": 96813, "island": "Oahu", "phone_num": 8089550800, "license_exp": "2022-09-30T00:00:00Z", "license_num": "19-ALF" }, "geometry": { "type": "Point", "coordinates": [ -157.835219051290039, 21.289760427748533 ] } }
]
}
