{
"type": "FeatureCollection",
"name": "Therapeutic_Living_Program_Facilities",
"crs": { "type": "name", "properties": { "name": "urn:ogc:def:crs:OGC:1.3:CRS84" } },
"features": [
{ "type": "Feature", "properties": { "objectid": 1, "name": "Big Island Substance Abuse Council (Kinoole)", "address": "2093 Kinoole Street", "city": "Hilo", "zipcode": 96720, "island": "Big Island", "phone": "8089699994", "license_ex": "2022-02-28T00:00:00Z", "license_nu": "37-TLP" }, "geometry": { "type": "Point", "coordinates": [ -155.069249724118549, 19.687282751246631 ] } },
{ "type": "Feature", "properties": { "objectid": 2, "name": "Big Island Substance Abuse Council (Laukona)", "address": "136 Laukona Street", "city": "Hilo", "zipcode": 96720, "island": "Big Island", "phone": "8089699994", "license_ex": "2022-02-28T00:00:00Z", "license_nu": "42-TLP" }, "geometry": { "type": "Point", "coordinates": [ -155.109186336886836, 19.71154597919789 ] } },
{ "type": "Feature", "properties": { "objectid": 3, "name": "East Hawaii Men's TLP", "address": "1151 Heauka Place", "city": "Hilo", "zipcode": 96720, "island": "Big Island", "phone": "8089699994", "license_ex": "2022-02-28T00:00:00Z", "license_nu": "47-TLP" }, "geometry": { "type": "Point", "coordinates": [ -155.125097235656312, 19.711673964207893 ] } },
{ "type": "Feature", "properties": { "objectid": 4, "name": "Ho'omau Ke Ola III", "address": "84-742 Farrington Highway", "city": "Waianae", "zipcode": 96792, "island": "Oahu", "phone": "8086964266", "license_ex": "2022-02-28T00:00:00Z", "license_nu": "23-TLP" }, "geometry": { "type": "Point", "coordinates": [ -158.21540368836304, 21.468844307195234 ] } },
{ "type": "Feature", "properties": { "objectid": 5, "name": "Ke Ola Pono", "address": "845 22nd Avenue", "city": "Honolulu", "zipcode": 96816, "island": "Oahu", "phone": "8087394951", "license_ex": "2022-06-30T00:00:00Z", "license_nu": "38-TLP" }, "geometry": { "type": "Point", "coordinates": [ -157.791962622502041, 21.271837878360998 ] } },
{ "type": "Feature", "properties": { "objectid": 6, "name": "Malama Family Recovery Center", "address": "388 Ano Street", "city": "Kahului", "zipcode": 96732, "island": "Maui", "phone": "8088777117", "license_ex": "2022-05-31T00:00:00Z", "license_nu": "46-TLP" }, "geometry": { "type": "Point", "coordinates": [ -156.478744362246943, 20.885294984137065 ] } },
{ "type": "Feature", "properties": { "objectid": 7, "name": "Pacific Quest - Awapuhi", "address": "15-1973 4th Avenue", "city": "Keaau", "zipcode": 96749, "island": "Big Island", "phone": "8083450076", "license_ex": "2021-11-30T00:00:00Z", "license_nu": "50-TLP" }, "geometry": { "type": "Point", "coordinates": [ -154.939692016057393, 19.588872449994074 ] } },
{ "type": "Feature", "properties": { "objectid": 8, "name": "Pacific Quest - Nanialii", "address": "15-1736 22nd Avenue", "city": "Keaau", "zipcode": 96749, "island": "Big Island", "phone": "8083450076", "license_ex": "2022-02-28T00:00:00Z", "license_nu": "51-TLP" }, "geometry": { "type": "Point", "coordinates": [ -154.976184585976853, 19.573702456430922 ] } },
{ "type": "Feature", "properties": { "objectid": 9, "name": "Pacific Quest - Olena", "address": "15-1903 26th Avenue", "city": "Keaau", "zipcode": 96749, "island": "Big Island", "phone": "8083450076", "license_ex": "2022-02-28T00:00:00Z", "license_nu": "52-TLP" }, "geometry": { "type": "Point", "coordinates": [ -154.971834354850046, 19.560268702074591 ] } },
{ "type": "Feature", "properties": { "objectid": 10, "name": "Pacific Quest at Reeds Bay", "address": "301 Kalanianaole Streeet", "city": "Hilo", "zipcode": 96720, "island": "Big Island", "phone": "8083450076", "license_ex": "2021-11-30T00:00:00Z", "license_nu": "48-TLP" }, "geometry": { "type": "Point", "coordinates": [ -155.059975992237725, 19.724900507679042 ] } }
]
}
